ID,Address,Postcode,Name,Type,Status,Source,lat,long,Description
MAXIMS CASINO FLETCHAMSTEAD HIGHWAY CV4 9DW,MAXIMS CASINO FLETCHAMSTEAD HIGHWAY CV4 9DW,CV4 9DW,Commercial - Retail - Public House / Bar / Nightclub,Commercial - Retail - Public House / Bar / Nightclub,,Coventry City Council (LLPG),52.403918,-1.560938,LLPG 9 Jul 2020
STANDARD TRIUMPH RECREATION CLUB TILE HILL LANE CV4 9DG,STANDARD TRIUMPH RECREATION CLUB TILE HILL LANE CV4 9DG,CV4 9DG,Commercial - Retail - Public House / Bar / Nightclub,Commercial - Retail - Public House / Bar / Nightclub,,Coventry City Council (LLPG),52.404172,-1.549126,LLPG 9 Jul 2020
BINLEY PARK INN BRINKLOW ROAD CV3 2DS,BINLEY PARK INN BRINKLOW ROAD CV3 2DS,CV3 2DS,Commercial - Retail - Public House / Bar / Nightclub,Commercial - Retail - Public House / Bar / Nightclub,,Coventry City Council (LLPG),52.403819,-1.443048,LLPG 9 Jul 2020
THE OLD CLARENCE EARLSDON AVENUE NORTH CV5 6GN,THE OLD CLARENCE EARLSDON AVENUE NORTH CV5 6GN,CV5 6GN,Commercial - Retail - Public House / Bar / Nightclub,Commercial - Retail - Public House / Bar / Nightclub,,Coventry City Council (LLPG),52.40231,-1.532669,LLPG 9 Jul 2020
OUR LADY OF THE ASSUMPTION CHURCH SOCIAL CLUB TILE HILL LANE CV4 9TA,OUR LADY OF THE ASSUMPTION CHURCH SOCIAL CLUB TILE HILL LANE CV4 9TA,CV4 9TA,Commercial - Retail - Public House / Bar / Nightclub,Commercial - Retail - Public House / Bar / Nightclub,,Coventry City Council (LLPG),52.402604,-1.582954,LLPG 9 Jul 2020
LIME TREE WORKING MENS CLUB TEMPLAR AVENUE CV4 9BQ,LIME TREE WORKING MENS CLUB TEMPLAR AVENUE CV4 9BQ,CV4 9BQ,Commercial - Retail - Public House / Bar / Nightclub,Commercial - Retail - Public House / Bar / Nightclub,,Coventry City Council (LLPG),52.400827,-1.570722,LLPG 9 Jul 2020
215  THE FARMHOUSE BEECHWOOD AVENUE CV5 6HB,215  THE FARMHOUSE BEECHWOOD AVENUE CV5 6HB,CV5 6HB,Commercial - Retail - Public House / Bar / Nightclub,Commercial - Retail - Public House / Bar / Nightclub,,Coventry City Council (LLPG),52.401505,-1.542878,LLPG 9 Jul 2020
THE BEAR AND STAFF PRINCETHORPE WAY CV3 2HG,THE BEAR AND STAFF PRINCETHORPE WAY CV3 2HG,CV3 2HG,Commercial - Retail - Public House / Bar / Nightclub,Commercial - Retail - Public House / Bar / Nightclub,,Coventry City Council (LLPG),52.400025,-1.452708,LLPG 9 Jul 2020
PARKS DEPARTMENT SOCIAL CLUB LONDON ROAD CV1 2JR,PARKS DEPARTMENT SOCIAL CLUB LONDON ROAD CV1 2JR,CV1 2JR,Commercial - Retail - Public House / Bar / Nightclub,Commercial - Retail - Public House / Bar / Nightclub,,Coventry City Council (LLPG),52.400525,-1.494326,LLPG 9 Jul 2020
BELL INN STATION AVENUE CV4 9HS,BELL INN STATION AVENUE CV4 9HS,CV4 9HS,Commercial - Retail - Public House / Bar / Nightclub,Commercial - Retail - Public House / Bar / Nightclub,,Coventry City Council (LLPG),52.398944,-1.595614,LLPG 9 Jul 2020
10 EARLSDON STREET CV5 6EG,10 EARLSDON STREET CV5 6EG,CV5 6EG,Commercial - Retail - Public House / Bar / Nightclub,Commercial - Retail - Public House / Bar / Nightclub,,Coventry City Council (LLPG),52.399545,-1.531537,LLPG 9 Jul 2020
1  THE CITY ARMS EARLSDON STREET CV5 6EP,1  THE CITY ARMS EARLSDON STREET CV5 6EP,CV5 6EP,Commercial - Retail - Public House / Bar / Nightclub,Commercial - Retail - Public House / Bar / Nightclub,,Coventry City Council (LLPG),52.398961,-1.531916,LLPG 9 Jul 2020
22 EARLSDON STREET CV5 6EJ,22 EARLSDON STREET CV5 6EJ,CV5 6EJ,Commercial - Retail - Public House / Bar / Nightclub,Commercial - Retail - Public House / Bar / Nightclub,,Coventry City Council (LLPG),52.398679,-1.533045,LLPG 9 Jul 2020
22-24  EARLSDON COTTAGE WARWICK STREET CV5 6ET,22-24  EARLSDON COTTAGE WARWICK STREET CV5 6ET,CV5 6ET,Commercial - Retail - Public House / Bar / Nightclub,Commercial - Retail - Public House / Bar / Nightclub,,Coventry City Council (LLPG),52.39912,-1.533442,LLPG 9 Jul 2020
6  STANDARD BEARER SANTOS CLOSE CV3 2FG,6  STANDARD BEARER SANTOS CLOSE CV3 2FG,CV3 2FG,Commercial - Retail - Public House / Bar / Nightclub,Commercial - Retail - Public House / Bar / Nightclub,,Coventry City Council (LLPG),52.397776,-1.448415,LLPG 9 Jul 2020
COVENTRY ARMS QUORN WAY CV3 2JU,COVENTRY ARMS QUORN WAY CV3 2JU,CV3 2JU,Commercial - Retail - Public House / Bar / Nightclub,Commercial - Retail - Public House / Bar / Nightclub,,Coventry City Council (LLPG),52.394101,-1.454751,LLPG 9 Jul 2020
58  CRAVEN ARMS CRAVEN STREET CV5 8DW,58  CRAVEN ARMS CRAVEN STREET CV5 8DW,CV5 8DW,Commercial - Retail - Public House / Bar / Nightclub,Commercial - Retail - Public House / Bar / Nightclub,,Coventry City Council (LLPG),52.406385,-1.53366,LLPG 9 Jul 2020
50 FREEHOLD STREET CV1 5BH,50 FREEHOLD STREET CV1 5BH,CV1 5BH,Commercial - Retail - Public House / Bar / Nightclub,Commercial - Retail - Public House / Bar / Nightclub,,Coventry City Council (LLPG),52.416196,-1.492618,LLPG 9 Jul 2020
THE TOLLGATE HOLYHEAD ROAD CV5 8HU,THE TOLLGATE HOLYHEAD ROAD CV5 8HU,CV5 8HU,Commercial - Retail - Public House / Bar / Nightclub,Commercial - Retail - Public House / Bar / Nightclub,,Coventry City Council (LLPG),52.417439,-1.543963,LLPG 9 Jul 2020
THE ROYAL OAK LONDON ROAD CV3 4AL,THE ROYAL OAK LONDON ROAD CV3 4AL,CV3 4AL,Commercial - Retail - Public House / Bar / Nightclub,Commercial - Retail - Public House / Bar / Nightclub,,Coventry City Council (LLPG),52.394143,-1.494502,LLPG 9 Jul 2020
1  THE SIGNAL BOX METO LAKHA CLOSE CV6 5BY,1  THE SIGNAL BOX METO LAKHA CLOSE CV6 5BY,CV6 5BY,Commercial - Retail - Public House / Bar / Nightclub,Commercial - Retail - Public House / Bar / Nightclub,,Coventry City Council (LLPG),52.429355,-1.493938,LLPG 9 Jul 2020
2  THE PENNY FARTHING GRAMERCY PARK CV4 9AE,2  THE PENNY FARTHING GRAMERCY PARK CV4 9AE,CV4 9AE,Commercial - Retail - Public House / Bar / Nightclub,Commercial - Retail - Public House / Bar / Nightclub,,Coventry City Council (LLPG),52.411621,-1.597903,LLPG 9 Jul 2020
THE SOVEREIGN CHARTER AVENUE CV4 8DA,THE SOVEREIGN CHARTER AVENUE CV4 8DA,CV4 8DA,Commercial - Retail - Public House / Bar / Nightclub,Commercial - Retail - Public House / Bar / Nightclub,,Coventry City Council (LLPG),52.392996,-1.573522,LLPG 9 Jul 2020
THE OPEN ARMS DAVENTRY ROAD CV3 5DP,THE OPEN ARMS DAVENTRY ROAD CV3 5DP,CV3 5DP,Commercial - Retail - Public House / Bar / Nightclub,Commercial - Retail - Public House / Bar / Nightclub,,Coventry City Council (LLPG),52.391735,-1.514118,LLPG 9 Jul 2020
CHEYLESMORE SOCIAL CLUB QUINTON PARK CV3 5PZ,CHEYLESMORE SOCIAL CLUB QUINTON PARK CV3 5PZ,CV3 5PZ,Commercial - Retail - Public House / Bar / Nightclub,Commercial - Retail - Public House / Bar / Nightclub,,Coventry City Council (LLPG),52.391324,-1.503924,LLPG 9 Jul 2020
THE PHANTOM COACH FLETCHAMSTEAD HIGHWAY CV4 7BA,THE PHANTOM COACH FLETCHAMSTEAD HIGHWAY CV4 7BA,CV4 7BA,Commercial - Retail - Public House / Bar / Nightclub,Commercial - Retail - Public House / Bar / Nightclub,,Coventry City Council (LLPG),52.391572,-1.550327,LLPG 9 Jul 2020
UNIT 4 THE SKYDOME CROFT ROAD CV1 3AZ,UNIT 4 THE SKYDOME CROFT ROAD CV1 3AZ,CV1 3AZ,Commercial - Retail - Public House / Bar / Nightclub,Commercial - Retail - Public House / Bar / Nightclub,,Coventry City Council (LLPG),52.407719,-1.518367,LLPG 9 Jul 2020
UNITS 5 AND 6 THE SKYDOME CROFT ROAD CV1 3AZ,UNITS 5 AND 6 THE SKYDOME CROFT ROAD CV1 3AZ,CV1 3AZ,Commercial - Retail - Public House / Bar / Nightclub,Commercial - Retail - Public House / Bar / Nightclub,,Coventry City Council (LLPG),52.407719,-1.518367,LLPG 9 Jul 2020
CROSBYS BAR THE SKY DOME ARENA CROFT ROAD CV1 3LE,CROSBYS BAR THE SKY DOME ARENA CROFT ROAD CV1 3LE,CV1 3LE,Commercial - Retail - Public House / Bar / Nightclub,Commercial - Retail - Public House / Bar / Nightclub,,Coventry City Council (LLPG),52.407018,-1.516258,LLPG 9 Jul 2020
59-61 HOLYHEAD ROAD CV1 3AA,59-61 HOLYHEAD ROAD CV1 3AA,CV1 3AA,Commercial - Retail - Public House / Bar / Nightclub,Commercial - Retail - Public House / Bar / Nightclub,,Coventry City Council (LLPG),52.410029,-1.52062,LLPG 9 Jul 2020
THE NEW HAVEN DILLOTFORD AVENUE CV3 5DU,THE NEW HAVEN DILLOTFORD AVENUE CV3 5DU,CV3 5DU,Commercial - Retail - Public House / Bar / Nightclub,Commercial - Retail - Public House / Bar / Nightclub,,Coventry City Council (LLPG),52.38868,-1.507995,LLPG 9 Jul 2020
THE GLADE PUBLIC HOUSE WINNALTHORPE CV3 3FB,THE GLADE PUBLIC HOUSE WINNALTHORPE CV3 3FB,CV3 3FB,Commercial - Retail - Public House / Bar / Nightclub,Commercial - Retail - Public House / Bar / Nightclub,,Coventry City Council (LLPG),52.386676,-1.454901,LLPG 9 Jul 2020
G CASINO RICOH ARENA JUDDS LANE CV6 6GE,G CASINO RICOH ARENA JUDDS LANE CV6 6GE,CV6 6GE,Commercial - Retail - Public House / Bar / Nightclub,Commercial - Retail - Public House / Bar / Nightclub,,Coventry City Council (LLPG),52.448284,-1.497421,LLPG 9 Jul 2020
GROUND FLOOR OLD FIRE STATION HALES STREET CV1 1JA,GROUND FLOOR OLD FIRE STATION HALES STREET CV1 1JA,CV1 1JA,Commercial - Retail - Public House / Bar / Nightclub,Commercial - Retail - Public House / Bar / Nightclub,,Coventry City Council (LLPG),52.4104,-1.507974,LLPG 9 Jul 2020
3E IGLU LOWER HOLYHEAD ROAD CV1 3AX,3E IGLU LOWER HOLYHEAD ROAD CV1 3AX,CV1 3AX,Commercial - Retail - Public House / Bar / Nightclub,Commercial - Retail - Public House / Bar / Nightclub,,Coventry City Council (LLPG),52.40911,-1.517793,LLPG 9 Jul 2020
GROUND FLOOR UNIT 6 THE COURTYARD REAR OF 74 TO 80 WALSGRAVE ROAD CV2 4ED,GROUND FLOOR UNIT 6 THE COURTYARD REAR OF 74 TO 80 WALSGRAVE ROAD CV2 4ED,CV2 4ED,Commercial - Retail - Public House / Bar / Nightclub,Commercial - Retail - Public House / Bar / Nightclub,,Coventry City Council (LLPG),52.410554,-1.483068,LLPG 9 Jul 2020
49  BURNT POST PUBLIC HOUSE KENPAS HIGHWAY CV3 6AW,49  BURNT POST PUBLIC HOUSE KENPAS HIGHWAY CV3 6AW,CV3 6AW,Commercial - Retail - Public House / Bar / Nightclub,Commercial - Retail - Public House / Bar / Nightclub,,Coventry City Council (LLPG),52.384677,-1.52949,LLPG 9 Jul 2020
GATE HOUSE TAVERN HILL STREET CV1 4AN,GATE HOUSE TAVERN HILL STREET CV1 4AN,CV1 4AN,Commercial - Retail - Public House / Bar / Nightclub,Commercial - Retail - Public House / Bar / Nightclub,,Coventry City Council (LLPG),52.409442,-1.515511,LLPG 9 Jul 2020
THE NEW VARSITY GIBBET HILL ROAD CV4 7AJ,THE NEW VARSITY GIBBET HILL ROAD CV4 7AJ,CV4 7AJ,Commercial - Retail - Public House / Bar / Nightclub,Commercial - Retail - Public House / Bar / Nightclub,,Coventry City Council (LLPG),52.373502,-1.553144,LLPG 9 Jul 2020
ELEPHANT AND CASTLE ALDERMANS GREEN ROAD CV2 1NL,ELEPHANT AND CASTLE ALDERMANS GREEN ROAD CV2 1NL,CV2 1NL,Commercial - Retail - Public House / Bar / Nightclub,Commercial - Retail - Public House / Bar / Nightclub,,Coventry City Council (LLPG),52.452133,-1.466726,LLPG 9 Jul 2020
TAYBARNS GIELGUD WAY CV2 2SZ,TAYBARNS GIELGUD WAY CV2 2SZ,CV2 2SZ,Commercial - Retail - Public House / Bar / Nightclub,Commercial - Retail - Public House / Bar / Nightclub,,Coventry City Council (LLPG),52.434706,-1.429171,LLPG 9 Jul 2020
24 BURGES CV1 1HL,24 BURGES CV1 1HL,CV1 1HL,Commercial - Retail - Public House / Bar / Nightclub,Commercial - Retail - Public House / Bar / Nightclub,,Coventry City Council (LLPG),52.41006,-1.510624,LLPG 9 Jul 2020
THE ELMS BIRMINGHAM ROAD CV5 9TZ,THE ELMS BIRMINGHAM ROAD CV5 9TZ,CV5 9TZ,Commercial - Retail - Public House / Bar / Nightclub,Commercial - Retail - Public House / Bar / Nightclub,,Coventry City Council (LLPG),52.422008,-1.556326,LLPG 9 Jul 2020
2  AARDVARK BUTTS CV1 3GR,2  AARDVARK BUTTS CV1 3GR,CV1 3GR,Commercial - Retail - Public House / Bar / Nightclub,Commercial - Retail - Public House / Bar / Nightclub,,Coventry City Council (LLPG),52.405058,-1.520792,LLPG 9 Jul 2020
STYVECHALE ARMS KENPAS HIGHWAY CV3 6PB,STYVECHALE ARMS KENPAS HIGHWAY CV3 6PB,CV3 6PB,Commercial - Retail - Public House / Bar / Nightclub,Commercial - Retail - Public House / Bar / Nightclub,,Coventry City Council (LLPG),52.380272,-1.520575,LLPG 9 Jul 2020
THE SQUIRREL GREYFRIARS LANE CV1 1GY,THE SQUIRREL GREYFRIARS LANE CV1 1GY,CV1 1GY,Commercial - Retail - Public House / Bar / Nightclub,Commercial - Retail - Public House / Bar / Nightclub,,Coventry City Council (LLPG),52.410436,-1.51231,LLPG 9 Jul 2020
FESTIVAL PUBLIC HOUSE FENSIDE AVENUE CV3 5QJ,FESTIVAL PUBLIC HOUSE FENSIDE AVENUE CV3 5QJ,CV3 5QJ,Commercial - Retail - Public House / Bar / Nightclub,Commercial - Retail - Public House / Bar / Nightclub,,Coventry City Council (LLPG),52.37886,-1.503065,LLPG 9 Jul 2020
73 BIRMINGHAM ROAD CV5 9GT,73 BIRMINGHAM ROAD CV5 9GT,CV5 9GT,Commercial - Retail - Public House / Bar / Nightclub,Commercial - Retail - Public House / Bar / Nightclub,,Coventry City Council (LLPG),52.423266,-1.560931,LLPG 9 Jul 2020
40  ROSE AND WOODBINE PUBLIC HOUSE NORTH STREET CV2 3FW,40  ROSE AND WOODBINE PUBLIC HOUSE NORTH STREET CV2 3FW,CV2 3FW,Commercial - Retail - Public House / Bar / Nightclub,Commercial - Retail - Public House / Bar / Nightclub,,Coventry City Council (LLPG),52.417835,-1.480733,LLPG 9 Jul 2020
COACH AND HORSES LONGFORD ROAD CV6 6BG,COACH AND HORSES LONGFORD ROAD CV6 6BG,CV6 6BG,Commercial - Retail - Public House / Bar / Nightclub,Commercial - Retail - Public House / Bar / Nightclub,,Coventry City Council (LLPG),52.451553,-1.485899,LLPG 9 Jul 2020
13  STAG AND PHEASANT LOCKHURST LANE CV6 5PD,13  STAG AND PHEASANT LOCKHURST LANE CV6 5PD,CV6 5PD,Commercial - Retail - Public House / Bar / Nightclub,Commercial - Retail - Public House / Bar / Nightclub,,Coventry City Council (LLPG),52.427929,-1.503366,LLPG 9 Jul 2020
296A WALSGRAVE ROAD CV2 4BL,296A WALSGRAVE ROAD CV2 4BL,CV2 4BL,Commercial - Retail - Retail Service Agent,Commercial - Retail - Retail Service Agent,,Coventry City Council (LLPG),52.411114,-1.473506,LLPG 9 Jul 2020
GROUND FLOOR 6 LOWER FORD STREET CV1 5QJ,GROUND FLOOR 6 LOWER FORD STREET CV1 5QJ,CV1 5QJ,Commercial - Retail - Retail Service Agent,Commercial - Retail - Retail Service Agent,,Coventry City Council (LLPG),52.410396,-1.502755,LLPG 9 Jul 2020
AMAZON DELIVERY LOCKER 719  TILE HILL SERVICE STATION TILE HILL LANE CV4 9HU,AMAZON DELIVERY LOCKER 719  TILE HILL SERVICE STATION TILE HILL LANE CV4 9HU,CV4 9HU,Commercial - Retail - Retail Service Agent,Commercial - Retail - Retail Service Agent,,Coventry City Council (LLPG),52.400632,-1.594343,LLPG 9 Jul 2020
SAINSBURYS BANK AT SAINSBURYS 330 FLETCHAMSTEAD HIGHWAY CV4 9BJ,SAINSBURYS BANK AT SAINSBURYS 330 FLETCHAMSTEAD HIGHWAY CV4 9BJ,CV4 9BJ,Commercial - Retail - Banks/financial services,Commercial - Retail - Banks/financial services,,Coventry City Council (LLPG),52.401551,-1.554988,LLPG 9 Jul 2020
AMAZON LOCKER  W M MORRISON SUPERMARKET SKIPWORTH ROAD CV3 2XA,AMAZON LOCKER  W M MORRISON SUPERMARKET SKIPWORTH ROAD CV3 2XA,CV3 2XA,Commercial - Retail - Retail Service Agent,Commercial - Retail - Retail Service Agent,,Coventry City Council (LLPG),52.401484,-1.437963,LLPG 9 Jul 2020
AMAZON LOCKER MORRISONS SUPERMARKET  ALVIS RETAIL PARK HOLYHEAD ROAD CV5 8BX,AMAZON LOCKER MORRISONS SUPERMARKET  ALVIS RETAIL PARK HOLYHEAD ROAD CV5 8BX,CV5 8BX,Commercial - Retail - Retail Service Agent,Commercial - Retail - Retail Service Agent,,Coventry City Council (LLPG),52.412538,-1.531972,LLPG 9 Jul 2020
8A LONGFORD ROAD CV6 6DX,8A LONGFORD ROAD CV6 6DX,CV6 6DX,Commercial - Retail - Retail Service Agent,Commercial - Retail - Retail Service Agent,,Coventry City Council (LLPG),52.444953,-1.487815,LLPG 9 Jul 2020
KATHLEENS CAFE ALMA STREET CV1 5QA,KATHLEENS CAFE ALMA STREET CV1 5QA,CV1 5QA,Commercial - Retail - Fast food outlets / takeaways (hot and cold),Commercial - Retail - Fast food outlets / takeaways (hot and cold),,Coventry City Council (LLPG),52.409648,-1.50022,LLPG 9 Jul 2020
BUREAU DE CHANGE  ASDA SHOPPING CENTRE BRADE DRIVE CV2 2BL,BUREAU DE CHANGE  ASDA SHOPPING CENTRE BRADE DRIVE CV2 2BL,CV2 2BL,Commercial - Retail - Retail Service Agent,Commercial - Retail - Retail Service Agent,,Coventry City Council (LLPG),52.424694,-1.435506,LLPG 9 Jul 2020
TESCO MOBILE  ARENA RETAIL PARK CLASSIC DRIVE CV6 6EN,TESCO MOBILE  ARENA RETAIL PARK CLASSIC DRIVE CV6 6EN,CV6 6EN,Commercial - Retail - Retail Service Agent,Commercial - Retail - Retail Service Agent,,Coventry City Council (LLPG),52.442595,-1.489314,LLPG 9 Jul 2020
BUREAU DE CHANGE  ARENA RETAIL PARK CLASSIC DRIVE CV6 6EN,BUREAU DE CHANGE  ARENA RETAIL PARK CLASSIC DRIVE CV6 6EN,CV6 6EN,Commercial - Retail - Retail Service Agent,Commercial - Retail - Retail Service Agent,,Coventry City Council (LLPG),52.442595,-1.489314,LLPG 9 Jul 2020
5  EASTWOOD BUSINESS VILLAGE HARRY WESTON ROAD CV3 2UB,5  EASTWOOD BUSINESS VILLAGE HARRY WESTON ROAD CV3 2UB,CV3 2UB,Commercial - Retail - Retail Service Agent,Commercial - Retail - Retail Service Agent,,Coventry City Council (LLPG),52.40215,-1.443687,LLPG 9 Jul 2020
UNIT 7A  FARGO VILLAGE FAR GOSFORD STREET CV1 5ED,UNIT 7A  FARGO VILLAGE FAR GOSFORD STREET CV1 5ED,CV1 5ED,Commercial - Retail - Retail Service Agent,Commercial - Retail - Retail Service Agent,,Coventry City Council (LLPG),52.407489,-1.493856,LLPG 9 Jul 2020
FIRST FLOOR 63A FAR GOSFORD STREET CV1 5DZ,FIRST FLOOR 63A FAR GOSFORD STREET CV1 5DZ,CV1 5DZ,Commercial - Retail - Retail Service Agent,Commercial - Retail - Retail Service Agent,,Coventry City Council (LLPG),52.408112,-1.494392,LLPG 9 Jul 2020
22 NEW UNION STREET CV1 2HN,22 NEW UNION STREET CV1 2HN,CV1 2HN,Commercial - Retail - Retail Service Agent,Commercial - Retail - Retail Service Agent,,Coventry City Council (LLPG),52.405029,-1.509553,LLPG 9 Jul 2020
HAND CAR WASH  TESCO SUPERMARKET OLIVIER WAY CV2 2SH,HAND CAR WASH  TESCO SUPERMARKET OLIVIER WAY CV2 2SH,CV2 2SH,Commercial - Retail - Retail Service Agent,Commercial - Retail - Retail Service Agent,,Coventry City Council (LLPG),52.432982,-1.431429,LLPG 9 Jul 2020
HAND CARWASH REAR OF 1059 FOLESHILL ROAD CV6 6ER,HAND CARWASH REAR OF 1059 FOLESHILL ROAD CV6 6ER,CV6 6ER,Commercial - Retail - Retail Service Agent,Commercial - Retail - Retail Service Agent,,Coventry City Council (LLPG),52.440251,-1.491812,LLPG 9 Jul 2020
57 BENNETTS ROAD NORTH CV7 8JY,57 BENNETTS ROAD NORTH CV7 8JY,CV7 8JY,Commercial - Retail - Fast food outlets / takeaways (hot and cold),Commercial - Retail - Fast food outlets / takeaways (hot and cold),,Coventry City Council (LLPG),52.463167,-1.537986,LLPG 9 Jul 2020
KERESLEY GARAGE TAMWORTH ROAD CV7 8JG,KERESLEY GARAGE TAMWORTH ROAD CV7 8JG,CV7 8JG,Commercial - Retail - Petrol Filling stations,Commercial - Retail - Petrol Filling stations,,Coventry City Council (LLPG),52.451178,-1.548441,LLPG 9 Jul 2020
318 HOLBROOK LANE CV6 4DJ,318 HOLBROOK LANE CV6 4DJ,CV6 4DJ,Commercial - Retail - Petrol Filling stations,Commercial - Retail - Petrol Filling stations,,Coventry City Council (LLPG),52.444611,-1.509159,LLPG 9 Jul 2020
304 HOLBROOK LANE CV6 4DH,304 HOLBROOK LANE CV6 4DH,CV6 4DH,Commercial - Retail - Other Licensed Premise / Vendor,Commercial - Retail - Other Licensed Premise / Vendor,,Coventry City Council (LLPG),52.443785,-1.509176,LLPG 9 Jul 2020
297  PETROL FILLING STATION HOLBROOK LANE CV6 4DF,297  PETROL FILLING STATION HOLBROOK LANE CV6 4DF,CV6 4DF,Commercial - Retail - Petrol Filling stations,Commercial - Retail - Petrol Filling stations,,Coventry City Council (LLPG),52.443392,-1.50974,LLPG 9 Jul 2020
916 FOLESHILL ROAD CV6 6GS,916 FOLESHILL ROAD CV6 6GS,CV6 6GS,Commercial - Retail - Retail Service Agent,Commercial - Retail - Retail Service Agent,,Coventry City Council (LLPG),52.440613,-1.490726,LLPG 9 Jul 2020
8 STLES WHEELWRIGHT BUILDINGS HEN LANE CV6 4HF,8 STLES WHEELWRIGHT BUILDINGS HEN LANE CV6 4HF,CV6 4HF,Commercial - Retail - Retail Service Agent,Commercial - Retail - Retail Service Agent,,Coventry City Council (LLPG),52.446217,-1.510356,LLPG 9 Jul 2020
23 BENNETTS ROAD SOUTH CV6 2FN,23 BENNETTS ROAD SOUTH CV6 2FN,CV6 2FN,Commercial - Retail - Fast food outlets / takeaways (hot and cold),Commercial - Retail - Fast food outlets / takeaways (hot and cold),,Coventry City Council (LLPG),52.44066,-1.532219,LLPG 9 Jul 2020
102A HILLMORTON ROAD CV2 1FW,102A HILLMORTON ROAD CV2 1FW,CV2 1FW,Commercial - Retail - Other Licensed Premise / Vendor,Commercial - Retail - Other Licensed Premise / Vendor,,Coventry City Council (LLPG),52.438748,-1.463166,LLPG 9 Jul 2020
107 PROFFITT AVENUE CV6 7ES,107 PROFFITT AVENUE CV6 7ES,CV6 7ES,Commercial - Retail - Banks/financial services,Commercial - Retail - Banks/financial services,,Coventry City Council (LLPG),52.437894,-1.483337,LLPG 9 Jul 2020
2 OLD CHURCH ROAD CV6 7BY,2 OLD CHURCH ROAD CV6 7BY,CV6 7BY,Commercial - Retail - Other Licensed Premise / Vendor,Commercial - Retail - Other Licensed Premise / Vendor,,Coventry City Council (LLPG),52.437461,-1.476649,LLPG 9 Jul 2020
1 HALL GREEN ROAD CV6 7BX,1 HALL GREEN ROAD CV6 7BX,CV6 7BX,Commercial - Retail - Banks/financial services,Commercial - Retail - Banks/financial services,,Coventry City Council (LLPG),52.437317,-1.474724,LLPG 9 Jul 2020
650 FOLESHILL ROAD CV6 5HR,650 FOLESHILL ROAD CV6 5HR,CV6 5HR,Commercial - Retail - Petrol Filling stations,Commercial - Retail - Petrol Filling stations,,Coventry City Council (LLPG),52.436885,-1.493101,LLPG 9 Jul 2020
64 HOLBROOK LANE CV6 4AB,64 HOLBROOK LANE CV6 4AB,CV6 4AB,Commercial - Retail - Other Licensed Premise / Vendor,Commercial - Retail - Other Licensed Premise / Vendor,,Coventry City Council (LLPG),52.434373,-1.505199,LLPG 9 Jul 2020
KFC OLIVIER WAY CV2 2SZ,KFC OLIVIER WAY CV2 2SZ,CV2 2SZ,Commercial - Retail - Fast food outlets / takeaways (hot and cold),Commercial - Retail - Fast food outlets / takeaways (hot and cold),,Coventry City Council (LLPG),52.434706,-1.429171,LLPG 9 Jul 2020
24 JUBILEE CRESCENT CV6 3ET,24 JUBILEE CRESCENT CV6 3ET,CV6 3ET,Commercial - Retail - Petrol Filling stations,Commercial - Retail - Petrol Filling stations,,Coventry City Council (LLPG),52.43129,-1.516396,LLPG 9 Jul 2020
30 JUBILEE CRESCENT CV6 3ET,30 JUBILEE CRESCENT CV6 3ET,CV6 3ET,Commercial - Retail - Banks/financial services,Commercial - Retail - Banks/financial services,,Coventry City Council (LLPG),52.43129,-1.516396,LLPG 9 Jul 2020
42-44 JUBILEE CRESCENT CV6 3ET,42-44 JUBILEE CRESCENT CV6 3ET,CV6 3ET,Commercial - Retail - Other Licensed Premise / Vendor,Commercial - Retail - Other Licensed Premise / Vendor,,Coventry City Council (LLPG),52.43129,-1.516396,LLPG 9 Jul 2020
143 HINCKLEY ROAD CV2 2QN,143 HINCKLEY ROAD CV2 2QN,CV2 2QN,Commercial - Retail - Petrol Filling stations,Commercial - Retail - Petrol Filling stations,,Coventry City Council (LLPG),52.430124,-1.439231,LLPG 9 Jul 2020
120-124 HINCKLEY ROAD CV2 2EU,120-124 HINCKLEY ROAD CV2 2EU,CV2 2EU,Commercial - Retail - Petrol Filling stations,Commercial - Retail - Petrol Filling stations,,Coventry City Council (LLPG),52.428373,-1.439739,LLPG 9 Jul 2020
168-170 LOCKHURST LANE CV6 5NY,168-170 LOCKHURST LANE CV6 5NY,CV6 5NY,Commercial - Retail - Petrol Filling stations,Commercial - Retail - Petrol Filling stations,,Coventry City Council (LLPG),52.42832,-1.502575,LLPG 9 Jul 2020
UNIT 5 ASDA SHOPPING CENTRE BRADE DRIVE CV2 2QZ,UNIT 5 ASDA SHOPPING CENTRE BRADE DRIVE CV2 2QZ,CV2 2QZ,Commercial - Retail - Markets (indoor and outdoor),Commercial - Retail - Markets (indoor and outdoor),,Coventry City Council (LLPG),52.428973,-1.433414,LLPG 9 Jul 2020
UNIT 4 ASDA SHOPPING CENTRE BRADE DRIVE CV2 2QZ,UNIT 4 ASDA SHOPPING CENTRE BRADE DRIVE CV2 2QZ,CV2 2QZ,Commercial - Retail - Markets (indoor and outdoor),Commercial - Retail - Markets (indoor and outdoor),,Coventry City Council (LLPG),52.428973,-1.433414,LLPG 9 Jul 2020
142 WOODWAY LANE CV2 2EJ,142 WOODWAY LANE CV2 2EJ,CV2 2EJ,Commercial - Retail - Other Licensed Premise / Vendor,Commercial - Retail - Other Licensed Premise / Vendor,,Coventry City Council (LLPG),52.428428,-1.445665,LLPG 9 Jul 2020
616-620 SEWALL HIGHWAY CV6 7JF,616-620 SEWALL HIGHWAY CV6 7JF,CV6 7JF,Commercial - Retail - Other Licensed Premise / Vendor,Commercial - Retail - Other Licensed Premise / Vendor,,Coventry City Council (LLPG),52.428276,-1.477316,LLPG 9 Jul 2020
422 H S B C BANK FOLESHILL ROAD CV6 5JX,422 H S B C BANK FOLESHILL ROAD CV6 5JX,CV6 5JX,Commercial - Retail - Banks/financial services,Commercial - Retail - Banks/financial services,,Coventry City Council (LLPG),52.429767,-1.498058,LLPG 9 Jul 2020
535-539 FOLESHILL ROAD CV6 5AU,535-539 FOLESHILL ROAD CV6 5AU,CV6 5AU,Commercial - Retail - Banks/financial services,Commercial - Retail - Banks/financial services,,Coventry City Council (LLPG),52.428865,-1.499341,LLPG 9 Jul 2020
531 FOLESHILL ROAD CV6 5AU,531 FOLESHILL ROAD CV6 5AU,CV6 5AU,Commercial - Retail - Banks/financial services,Commercial - Retail - Banks/financial services,,Coventry City Council (LLPG),52.428865,-1.499341,LLPG 9 Jul 2020
4 STATION STREET EAST CV6 5FJ,4 STATION STREET EAST CV6 5FJ,CV6 5FJ,Commercial - Retail - Retail Service Agent,Commercial - Retail - Retail Service Agent,,Coventry City Council (LLPG),52.428801,-1.496856,LLPG 9 Jul 2020
396-398 FOLESHILL ROAD CV6 5AN,396-398 FOLESHILL ROAD CV6 5AN,CV6 5AN,Commercial - Retail - Other Licensed Premise / Vendor,Commercial - Retail - Other Licensed Premise / Vendor,,Coventry City Council (LLPG),52.428693,-1.498902,LLPG 9 Jul 2020
519-521 FOLESHILL ROAD CV6 5AU,519-521 FOLESHILL ROAD CV6 5AU,CV6 5AU,Commercial - Retail - Banks/financial services,Commercial - Retail - Banks/financial services,,Coventry City Council (LLPG),52.428865,-1.499341,LLPG 9 Jul 2020
358 FOLESHILL ROAD CV6 5AN,358 FOLESHILL ROAD CV6 5AN,CV6 5AN,Commercial - Retail - Other Licensed Premise / Vendor,Commercial - Retail - Other Licensed Premise / Vendor,,Coventry City Council (LLPG),52.428693,-1.498902,LLPG 9 Jul 2020
586B STONEY STANTON ROAD CV6 5FS,586B STONEY STANTON ROAD CV6 5FS,CV6 5FS,Commercial - Retail - Retail Service Agent,Commercial - Retail - Retail Service Agent,,Coventry City Council (LLPG),52.427536,-1.491208,LLPG 9 Jul 2020
49 WOODWAY LANE CV2 2EE,49 WOODWAY LANE CV2 2EE,CV2 2EE,Commercial - Retail - Fast food outlets / takeaways (hot and cold),Commercial - Retail - Fast food outlets / takeaways (hot and cold),,Coventry City Council (LLPG),52.426365,-1.44472,LLPG 9 Jul 2020
JOSHI ESTATES 431 FOLESHILL ROAD CV6 5AQ,JOSHI ESTATES 431 FOLESHILL ROAD CV6 5AQ,CV6 5AQ,Commercial - Retail - Retail Service Agent,Commercial - Retail - Retail Service Agent,,Coventry City Council (LLPG),52.426607,-1.501146,LLPG 9 Jul 2020
RYEHILL SERVICE STATION DUNCHURCH HIGHWAY CV5 9QT,RYEHILL SERVICE STATION DUNCHURCH HIGHWAY CV5 9QT,CV5 9QT,Commercial - Retail - Petrol Filling stations,Commercial - Retail - Petrol Filling stations,,Coventry City Council (LLPG),52.425203,-1.571809,LLPG 9 Jul 2020
323 FOLESHILL ROAD CV1 4JS,323 FOLESHILL ROAD CV1 4JS,CV1 4JS,Commercial - Retail - Retail Service Agent,Commercial - Retail - Retail Service Agent,,Coventry City Council (LLPG),52.422308,-1.50493,LLPG 9 Jul 2020
LADBROKE RACING LTD TORCROSS AVENUE CV2 3NQ,LADBROKE RACING LTD TORCROSS AVENUE CV2 3NQ,CV2 3NQ,Commercial - Retail - Other Licensed Premise / Vendor,Commercial - Retail - Other Licensed Premise / Vendor,,Coventry City Council (LLPG),52.420791,-1.468141,LLPG 9 Jul 2020
52 TORCROSS AVENUE CV2 3NQ,52 TORCROSS AVENUE CV2 3NQ,CV2 3NQ,Commercial - Retail - Other Licensed Premise / Vendor,Commercial - Retail - Other Licensed Premise / Vendor,,Coventry City Council (LLPG),52.420791,-1.468141,LLPG 9 Jul 2020
430 HOLYHEAD ROAD CV5 8ND,430 HOLYHEAD ROAD CV5 8ND,CV5 8ND,Commercial - Retail - Petrol Filling stations,Commercial - Retail - Petrol Filling stations,,Coventry City Council (LLPG),52.419426,-1.546624,LLPG 9 Jul 2020
135 AVON STREET CV2 3GH,135 AVON STREET CV2 3GH,CV2 3GH,Commercial - Retail - Fast food outlets / takeaways (hot and cold),Commercial - Retail - Fast food outlets / takeaways (hot and cold),,Coventry City Council (LLPG),52.417977,-1.474203,LLPG 9 Jul 2020
188 NORTH STREET CV2 3FS,188 NORTH STREET CV2 3FS,CV2 3FS,Commercial - Retail - Petrol Filling stations,Commercial - Retail - Petrol Filling stations,,Coventry City Council (LLPG),52.418024,-1.476585,LLPG 9 Jul 2020
167  PETROL FILLING STATION ANSTY ROAD CV2 3FH,167  PETROL FILLING STATION ANSTY ROAD CV2 3FH,CV2 3FH,Commercial - Retail - Petrol Filling stations,Commercial - Retail - Petrol Filling stations,,Coventry City Council (LLPG),52.416308,-1.462843,LLPG 9 Jul 2020
455B-457 HOLYHEAD ROAD CV5 8HU,455B-457 HOLYHEAD ROAD CV5 8HU,CV5 8HU,Commercial - Retail - Retail Service Agent,Commercial - Retail - Retail Service Agent,,Coventry City Council (LLPG),52.417439,-1.543963,LLPG 9 Jul 2020
BARRAS HEATH HAND CAR WASH MERCER AVENUE CV2 4PP,BARRAS HEATH HAND CAR WASH MERCER AVENUE CV2 4PP,CV2 4PP,Commercial - Retail - Retail Service Agent,Commercial - Retail - Retail Service Agent,,Coventry City Council (LLPG),52.416664,-1.48232,LLPG 9 Jul 2020
1A HEATH ROAD CV2 4PY,1A HEATH ROAD CV2 4PY,CV2 4PY,Commercial - Retail - Retail Service Agent,Commercial - Retail - Retail Service Agent,,Coventry City Council (LLPG),52.414197,-1.48748,LLPG 9 Jul 2020
487 HOLYHEAD ROAD CV5 8HU,487 HOLYHEAD ROAD CV5 8HU,CV5 8HU,Commercial - Retail - Fast food outlets / takeaways (hot and cold),Commercial - Retail - Fast food outlets / takeaways (hot and cold),,Coventry City Council (LLPG),52.417439,-1.543963,LLPG 9 Jul 2020
UNITS 10 T0 11  COVENTRY CANAL BASIN ST NICHOLAS STREET CV1 4LY,UNITS 10 T0 11  COVENTRY CANAL BASIN ST NICHOLAS STREET CV1 4LY,CV1 4LY,Commercial - Retail - Retail Service Agent,Commercial - Retail - Retail Service Agent,,Coventry City Council (LLPG),52.413632,-1.511649,LLPG 9 Jul 2020
35 HEATH CRESCENT CV2 4PR,35 HEATH CRESCENT CV2 4PR,CV2 4PR,Commercial - Retail - Retail Service Agent,Commercial - Retail - Retail Service Agent,,Coventry City Council (LLPG),52.421001,-1.483064,LLPG 9 Jul 2020
11 WHITAKER ROAD CV5 9JE,11 WHITAKER ROAD CV5 9JE,CV5 9JE,Commercial - Retail - Other Licensed Premise / Vendor,Commercial - Retail - Other Licensed Premise / Vendor,,Coventry City Council (LLPG),52.413015,-1.555343,LLPG 9 Jul 2020
241 WALSGRAVE ROAD CV2 4BB,241 WALSGRAVE ROAD CV2 4BB,CV2 4BB,Commercial - Retail - Banks/financial services,Commercial - Retail - Banks/financial services,,Coventry City Council (LLPG),52.411216,-1.482208,LLPG 9 Jul 2020
292 WALSGRAVE ROAD CV2 4BL,292 WALSGRAVE ROAD CV2 4BL,CV2 4BL,Commercial - Retail - Fast food outlets / takeaways (hot and cold),Commercial - Retail - Fast food outlets / takeaways (hot and cold),,Coventry City Council (LLPG),52.411114,-1.473506,LLPG 9 Jul 2020
118 WALSGRAVE ROAD CV2 4AX,118 WALSGRAVE ROAD CV2 4AX,CV2 4AX,Commercial - Retail - Banks/financial services,Commercial - Retail - Banks/financial services,,Coventry City Council (LLPG),52.411235,-1.48034,LLPG 9 Jul 2020
223-229 WALSGRAVE ROAD CV2 4HH,223-229 WALSGRAVE ROAD CV2 4HH,CV2 4HH,Commercial - Retail - Banks/financial services,Commercial - Retail - Banks/financial services,,Coventry City Council (LLPG),52.41078,-1.483483,LLPG 9 Jul 2020
193-195 LONGFELLOW ROAD CV2 5HL,193-195 LONGFELLOW ROAD CV2 5HL,CV2 5HL,Commercial - Retail - Retail Service Agent,Commercial - Retail - Retail Service Agent,,Coventry City Council (LLPG),52.410529,-1.46137,LLPG 9 Jul 2020
98-100 WALSGRAVE ROAD CV2 4ED,98-100 WALSGRAVE ROAD CV2 4ED,CV2 4ED,Commercial - Retail - Banks/financial services,Commercial - Retail - Banks/financial services,,Coventry City Council (LLPG),52.410554,-1.483068,LLPG 9 Jul 2020
185 WALSGRAVE ROAD CV2 4HH,185 WALSGRAVE ROAD CV2 4HH,CV2 4HH,Commercial - Retail - Banks/financial services,Commercial - Retail - Banks/financial services,,Coventry City Council (LLPG),52.41078,-1.483483,LLPG 9 Jul 2020
6 LOWER FORD STREET CV1 5QJ,6 LOWER FORD STREET CV1 5QJ,CV1 5QJ,Commercial - Retail - Retail Service Agent,Commercial - Retail - Retail Service Agent,,Coventry City Council (LLPG),52.410396,-1.502755,LLPG 9 Jul 2020
11-13 HALES STREET CV1 1JB,11-13 HALES STREET CV1 1JB,CV1 1JB,Commercial - Retail - Fast food outlets / takeaways (hot and cold),Commercial - Retail - Fast food outlets / takeaways (hot and cold),,Coventry City Council (LLPG),52.41048,-1.51036,LLPG 9 Jul 2020
9 MINSTER ROAD CV1 3AF,9 MINSTER ROAD CV1 3AF,CV1 3AF,Commercial - Retail - Petrol Filling stations,Commercial - Retail - Petrol Filling stations,,Coventry City Council (LLPG),52.410057,-1.523016,LLPG 9 Jul 2020
2 NAPIER STREET CV1 5PR,2 NAPIER STREET CV1 5PR,CV1 5PR,Commercial - Retail - Retail Service Agent,Commercial - Retail - Retail Service Agent,,Coventry City Council (LLPG),52.409617,-1.497133,LLPG 9 Jul 2020
HOLLYWOOD NAILS SMITHFORD WAY CV1 1FZ,HOLLYWOOD NAILS SMITHFORD WAY CV1 1FZ,CV1 1FZ,Commercial - Retail - Retail Service Agent,Commercial - Retail - Retail Service Agent,,Coventry City Council (LLPG),52.409844,-1.512787,LLPG 9 Jul 2020
254 HIPSWELL HIGHWAY CV2 5FS,254 HIPSWELL HIGHWAY CV2 5FS,CV2 5FS,Commercial - Retail - Other Licensed Premise / Vendor,Commercial - Retail - Other Licensed Premise / Vendor,,Coventry City Council (LLPG),52.408545,-1.459997,LLPG 9 Jul 2020
3 TRINITY STREET CV1 1FJ,3 TRINITY STREET CV1 1FJ,CV1 1FJ,Commercial - Retail - Fast food outlets / takeaways (hot and cold),Commercial - Retail - Fast food outlets / takeaways (hot and cold),,Coventry City Council (LLPG),52.409776,-1.509604,LLPG 9 Jul 2020
THIRD FLOOR 53 CORPORATION STREET CV1 1GX,THIRD FLOOR 53 CORPORATION STREET CV1 1GX,CV1 1GX,Commercial - Retail - Banks/financial services,Commercial - Retail - Banks/financial services,,Coventry City Council (LLPG),52.409464,-1.514394,LLPG 9 Jul 2020
25-27 SMITHFORD WAY CV1 1FY,25-27 SMITHFORD WAY CV1 1FY,CV1 1FY,Commercial - Retail - Fast food outlets / takeaways (hot and cold),Commercial - Retail - Fast food outlets / takeaways (hot and cold),,Coventry City Council (LLPG),52.40926,-1.513211,LLPG 9 Jul 2020
11 SPON STREET CV1 3BA,11 SPON STREET CV1 3BA,CV1 3BA,Commercial - Retail - Fast food outlets / takeaways (hot and cold),Commercial - Retail - Fast food outlets / takeaways (hot and cold),,Coventry City Council (LLPG),52.408279,-1.516935,LLPG 9 Jul 2020
79 UPPER SPON STREET CV1 3BL,79 UPPER SPON STREET CV1 3BL,CV1 3BL,Commercial - Retail - Other Licensed Premise / Vendor,Commercial - Retail - Other Licensed Premise / Vendor,,Coventry City Council (LLPG),52.408324,-1.523476,LLPG 9 Jul 2020
70 FAR GOSFORD STREET CV1 5DZ,70 FAR GOSFORD STREET CV1 5DZ,CV1 5DZ,Commercial - Retail - Fast food outlets / takeaways (hot and cold),Commercial - Retail - Fast food outlets / takeaways (hot and cold),,Coventry City Council (LLPG),52.408112,-1.494392,LLPG 9 Jul 2020
96-97 FAR GOSFORD STREET CV1 5EA,96-97 FAR GOSFORD STREET CV1 5EA,CV1 5EA,Commercial - Retail - Other Licensed Premise / Vendor,Commercial - Retail - Other Licensed Premise / Vendor,,Coventry City Council (LLPG),52.407862,-1.494507,LLPG 9 Jul 2020
7 HEARSALL LANE CV5 6HF,7 HEARSALL LANE CV5 6HF,CV5 6HF,Commercial - Retail - Retail Service Agent,Commercial - Retail - Retail Service Agent,,Coventry City Council (LLPG),52.407291,-1.530573,LLPG 9 Jul 2020
UNIT 5  CATHEDRAL LANES SHOPPING CENTRE BROADGATE CV1 1LL,UNIT 5  CATHEDRAL LANES SHOPPING CENTRE BROADGATE CV1 1LL,CV1 1LL,Commercial - Retail - Banks/financial services,Commercial - Retail - Banks/financial services,,Coventry City Council (LLPG),52.407755,-1.509767,LLPG 9 Jul 2020
30 FAR GOSFORD STREET CV1 5DW,30 FAR GOSFORD STREET CV1 5DW,CV1 5DW,Commercial - Retail - Retail Service Agent,Commercial - Retail - Retail Service Agent,,Coventry City Council (LLPG),52.407816,-1.496763,LLPG 9 Jul 2020
5-6 HIGH STREET CV1 5RE,5-6 HIGH STREET CV1 5RE,CV1 5RE,Commercial - Retail - Banks/financial services,Commercial - Retail - Banks/financial services,,Coventry City Council (LLPG),52.407374,-1.508875,LLPG 9 Jul 2020
7-11 HIGH STREET CV1 5SB,7-11 HIGH STREET CV1 5SB,CV1 5SB,Commercial - Retail - Banks/financial services,Commercial - Retail - Banks/financial services,,Coventry City Council (LLPG),52.407573,-1.509284,LLPG 9 Jul 2020
12 HIGH STREET CV1 5RE,12 HIGH STREET CV1 5RE,CV1 5RE,Commercial - Retail - Fast food outlets / takeaways (hot and cold),Commercial - Retail - Fast food outlets / takeaways (hot and cold),,Coventry City Council (LLPG),52.407374,-1.508875,LLPG 9 Jul 2020
14 HIGH STREET CV1 5RE,14 HIGH STREET CV1 5RE,CV1 5RE,Commercial - Retail - Banks/financial services,Commercial - Retail - Banks/financial services,,Coventry City Council (LLPG),52.407374,-1.508875,LLPG 9 Jul 2020
78-79 HERTFORD STREET CV1 1LB,78-79 HERTFORD STREET CV1 1LB,CV1 1LB,Commercial - Retail - Banks/financial services,Commercial - Retail - Banks/financial services,,Coventry City Council (LLPG),52.406834,-1.510983,LLPG 9 Jul 2020
15 HIGH STREET CV1 5RE,15 HIGH STREET CV1 5RE,CV1 5RE,Commercial - Retail - Banks/financial services,Commercial - Retail - Banks/financial services,,Coventry City Council (LLPG),52.407374,-1.508875,LLPG 9 Jul 2020
29 HIGH STREET CV1 5RE,29 HIGH STREET CV1 5RE,CV1 5RE,Commercial - Retail - Banks/financial services,Commercial - Retail - Banks/financial services,,Coventry City Council (LLPG),52.407374,-1.508875,LLPG 9 Jul 2020
22 HIGH STREET CV1 5QX,22 HIGH STREET CV1 5QX,CV1 5QX,Commercial - Retail - Banks/financial services,Commercial - Retail - Banks/financial services,,Coventry City Council (LLPG),52.40724,-1.509214,LLPG 9 Jul 2020
30 HIGH STREET CV1 5RE,30 HIGH STREET CV1 5RE,CV1 5RE,Commercial - Retail - Banks/financial services,Commercial - Retail - Banks/financial services,,Coventry City Council (LLPG),52.407374,-1.508875,LLPG 9 Jul 2020
25 HIGH STREET CV1 5RE,25 HIGH STREET CV1 5RE,CV1 5RE,Commercial - Retail - Banks/financial services,Commercial - Retail - Banks/financial services,,Coventry City Council (LLPG),52.407374,-1.508875,LLPG 9 Jul 2020
19-20 HIGH STREET CV1 5RE,19-20 HIGH STREET CV1 5RE,CV1 5RE,Commercial - Retail - Banks/financial services,Commercial - Retail - Banks/financial services,,Coventry City Council (LLPG),52.407374,-1.508875,LLPG 9 Jul 2020
69 HERTFORD STREET CV1 1LB,69 HERTFORD STREET CV1 1LB,CV1 1LB,Commercial - Retail - Banks/financial services,Commercial - Retail - Banks/financial services,,Coventry City Council (LLPG),52.406834,-1.510983,LLPG 9 Jul 2020
68 HERTFORD STREET CV1 1LB,68 HERTFORD STREET CV1 1LB,CV1 1LB,Commercial - Retail - Banks/financial services,Commercial - Retail - Banks/financial services,,Coventry City Council (LLPG),52.406834,-1.510983,LLPG 9 Jul 2020
70 HERTFORD STREET CV1 1LB,70 HERTFORD STREET CV1 1LB,CV1 1LB,Commercial - Retail - Retail Service Agent,Commercial - Retail - Retail Service Agent,,Coventry City Council (LLPG),52.406834,-1.510983,LLPG 9 Jul 2020
74 JARDINE CRESCENT CV4 9PQ,74 JARDINE CRESCENT CV4 9PQ,CV4 9PQ,Commercial - Retail - Other Licensed Premise / Vendor,Commercial - Retail - Other Licensed Premise / Vendor,,Coventry City Council (LLPG),52.406653,-1.575781,LLPG 9 Jul 2020
73 BINLEY ROAD CV3 1HU,73 BINLEY ROAD CV3 1HU,CV3 1HU,Commercial - Retail - Fast food outlets / takeaways (hot and cold),Commercial - Retail - Fast food outlets / takeaways (hot and cold),,Coventry City Council (LLPG),52.406377,-1.477831,LLPG 9 Jul 2020
NATIONAL TYRE AND AUTOCARE 65-69 SITE OF GOSFORD STREET CV1 5DL,NATIONAL TYRE AND AUTOCARE 65-69 SITE OF GOSFORD STREET CV1 5DL,CV1 5DL,Commercial - Retail - Petrol Filling stations,Commercial - Retail - Petrol Filling stations,,Coventry City Council (LLPG),52.406468,-1.502902,LLPG 9 Jul 2020
69 BINLEY ROAD CV3 1HU,69 BINLEY ROAD CV3 1HU,CV3 1HU,Commercial - Retail - Fast food outlets / takeaways (hot and cold),Commercial - Retail - Fast food outlets / takeaways (hot and cold),,Coventry City Council (LLPG),52.406377,-1.477831,LLPG 9 Jul 2020
59 HERTFORD STREET CV1 1LB,59 HERTFORD STREET CV1 1LB,CV1 1LB,Commercial - Retail - Banks/financial services,Commercial - Retail - Banks/financial services,,Coventry City Council (LLPG),52.406834,-1.510983,LLPG 9 Jul 2020
45-46 HERTFORD STREET CV1 1LF,45-46 HERTFORD STREET CV1 1LF,CV1 1LF,Commercial - Retail - Banks/financial services,Commercial - Retail - Banks/financial services,,Coventry City Council (LLPG),52.406837,-1.511585,LLPG 9 Jul 2020
134  STOKE PARK SERVICE STATION BINLEY ROAD CV3 1HB,134  STOKE PARK SERVICE STATION BINLEY ROAD CV3 1HB,CV3 1HB,Commercial - Retail - Petrol Filling stations,Commercial - Retail - Petrol Filling stations,,Coventry City Council (LLPG),52.406374,-1.475112,LLPG 9 Jul 2020
48 HERTFORD STREET CV1 1LF,48 HERTFORD STREET CV1 1LF,CV1 1LF,Commercial - Retail - Banks/financial services,Commercial - Retail - Banks/financial services,,Coventry City Council (LLPG),52.406837,-1.511585,LLPG 9 Jul 2020
51 HERTFORD STREET CV1 1LB,51 HERTFORD STREET CV1 1LB,CV1 1LB,Commercial - Retail - Retail Service Agent,Commercial - Retail - Retail Service Agent,,Coventry City Council (LLPG),52.406834,-1.510983,LLPG 9 Jul 2020
8A  SUBWAY BULL YARD CV1 1LH,8A  SUBWAY BULL YARD CV1 1LH,CV1 1LH,Commercial - Retail - Fast food outlets / takeaways (hot and cold),Commercial - Retail - Fast food outlets / takeaways (hot and cold),,Coventry City Council (LLPG),52.406124,-1.513166,LLPG 9 Jul 2020
7 SHELTON SQUARE CV1 1DG,7 SHELTON SQUARE CV1 1DG,CV1 1DG,Commercial - Retail - Fast food outlets / takeaways (hot and cold),Commercial - Retail - Fast food outlets / takeaways (hot and cold),,Coventry City Council (LLPG),52.40618,-1.513695,LLPG 9 Jul 2020
SHAKLETON ROAD GARAGE SHAKLETON ROAD CV5 6HT,SHAKLETON ROAD GARAGE SHAKLETON ROAD CV5 6HT,CV5 6HT,Commercial - Retail - Petrol Filling stations,Commercial - Retail - Petrol Filling stations,,Coventry City Council (LLPG),52.406456,-1.528582,LLPG 9 Jul 2020
6 WARWICK ROW CV1 1EE,6 WARWICK ROW CV1 1EE,CV1 1EE,Commercial - Retail - Banks/financial services,Commercial - Retail - Banks/financial services,,Coventry City Council (LLPG),52.405505,-1.513423,LLPG 9 Jul 2020
BANK OF SCOTLAND 2 GREYFRIARS ROAD CV1 3RA,BANK OF SCOTLAND 2 GREYFRIARS ROAD CV1 3RA,CV1 3RA,Commercial - Retail - Banks/financial services,Commercial - Retail - Banks/financial services,,Coventry City Council (LLPG),52.405254,-1.515748,LLPG 9 Jul 2020
149-151 NEW UNION STREET CV1 2RP,149-151 NEW UNION STREET CV1 2RP,CV1 2RP,Commercial - Retail - Retail Service Agent,Commercial - Retail - Retail Service Agent,,Coventry City Council (LLPG),52.405182,-1.511471,LLPG 9 Jul 2020
34-40 NEW UNION STREET CV1 2HN,34-40 NEW UNION STREET CV1 2HN,CV1 2HN,Commercial - Retail - Retail Service Agent,Commercial - Retail - Retail Service Agent,,Coventry City Council (LLPG),52.405029,-1.509553,LLPG 9 Jul 2020
109  CASTLES LETTING NEW UNION STREET CV1 2NT,109  CASTLES LETTING NEW UNION STREET CV1 2NT,CV1 2NT,Commercial - Retail - Retail Service Agent,Commercial - Retail - Retail Service Agent,,Coventry City Council (LLPG),52.405088,-1.510919,LLPG 9 Jul 2020
20 NEW UNION STREET CV1 2HN,20 NEW UNION STREET CV1 2HN,CV1 2HN,Commercial - Retail - Retail Service Agent,Commercial - Retail - Retail Service Agent,,Coventry City Council (LLPG),52.405029,-1.509553,LLPG 9 Jul 2020
14  BANSAL HOUSE WARWICK ROW CV1 1EX,14  BANSAL HOUSE WARWICK ROW CV1 1EX,CV1 1EX,Commercial - Retail - Retail Service Agent,Commercial - Retail - Retail Service Agent,,Coventry City Council (LLPG),52.405163,-1.513697,LLPG 9 Jul 2020
GROUND FLOOR 121-123 NEW UNION STREET CV1 2NT,GROUND FLOOR 121-123 NEW UNION STREET CV1 2NT,CV1 2NT,Commercial - Retail - Retail Service Agent,Commercial - Retail - Retail Service Agent,,Coventry City Council (LLPG),52.405088,-1.510919,LLPG 9 Jul 2020
15-17 WARWICK ROW CV1 1EX,15-17 WARWICK ROW CV1 1EX,CV1 1EX,Commercial - Retail - Retail Service Agent,Commercial - Retail - Retail Service Agent,,Coventry City Council (LLPG),52.405163,-1.513697,LLPG 9 Jul 2020
1 MANOR TERRACE FRIARS ROAD CV1 2NU,1 MANOR TERRACE FRIARS ROAD CV1 2NU,CV1 2NU,Commercial - Retail - Retail Service Agent,Commercial - Retail - Retail Service Agent,,Coventry City Council (LLPG),52.404683,-1.510404,LLPG 9 Jul 2020
4 MANOR TERRACE FRIARS ROAD CV1 2NU,4 MANOR TERRACE FRIARS ROAD CV1 2NU,CV1 2NU,Commercial - Retail - Retail Service Agent,Commercial - Retail - Retail Service Agent,,Coventry City Council (LLPG),52.404683,-1.510404,LLPG 9 Jul 2020
23 WARWICK ROW CV1 1EY,23 WARWICK ROW CV1 1EY,CV1 1EY,Commercial - Retail - Retail Service Agent,Commercial - Retail - Retail Service Agent,,Coventry City Council (LLPG),52.404469,-1.515095,LLPG 9 Jul 2020
339 TILE HILL LANE CV4 9DU,339 TILE HILL LANE CV4 9DU,CV4 9DU,Commercial - Retail - Other Licensed Premise / Vendor,Commercial - Retail - Other Licensed Premise / Vendor,,Coventry City Council (LLPG),52.403668,-1.563345,LLPG 9 Jul 2020
351 TILE HILL LANE CV4 9DU,351 TILE HILL LANE CV4 9DU,CV4 9DU,Commercial - Retail - Banks/financial services,Commercial - Retail - Banks/financial services,,Coventry City Council (LLPG),52.403668,-1.563345,LLPG 9 Jul 2020
CITROEN CAR SHOWROOM HERALD AVENUE CV5 6UB,CITROEN CAR SHOWROOM HERALD AVENUE CV5 6UB,CV5 6UB,Commercial - Retail - Petrol Filling stations,Commercial - Retail - Petrol Filling stations,,Coventry City Council (LLPG),52.403256,-1.55239,LLPG 9 Jul 2020
110 EASTCOTES CV4 9AS,110 EASTCOTES CV4 9AS,CV4 9AS,Commercial - Retail - Other Licensed Premise / Vendor,Commercial - Retail - Other Licensed Premise / Vendor,,Coventry City Council (LLPG),52.40006,-1.562749,LLPG 9 Jul 2020
165 ALBANY ROAD CV5 6NE,165 ALBANY ROAD CV5 6NE,CV5 6NE,Commercial - Retail - Retail Service Agent,Commercial - Retail - Retail Service Agent,,Coventry City Council (LLPG),52.40053,-1.528205,LLPG 9 Jul 2020
167-169 ALBANY ROAD CV5 6NE,167-169 ALBANY ROAD CV5 6NE,CV5 6NE,Commercial - Retail - Retail Service Agent,Commercial - Retail - Retail Service Agent,,Coventry City Council (LLPG),52.40053,-1.528205,LLPG 9 Jul 2020
715 TILE HILL LANE CV4 9HU,715 TILE HILL LANE CV4 9HU,CV4 9HU,Commercial - Retail - Other Licensed Premise / Vendor,Commercial - Retail - Other Licensed Premise / Vendor,,Coventry City Council (LLPG),52.400632,-1.594343,LLPG 9 Jul 2020
719 TILE HILL SERVICE STATION TILE HILL LANE CV4 9HU,719 TILE HILL SERVICE STATION TILE HILL LANE CV4 9HU,CV4 9HU,Commercial - Retail - Petrol Filling stations,Commercial - Retail - Petrol Filling stations,,Coventry City Council (LLPG),52.400632,-1.594343,LLPG 9 Jul 2020
55 TANNERS LANE CV4 9HX,55 TANNERS LANE CV4 9HX,CV4 9HX,Commercial - Retail - Petrol Filling stations,Commercial - Retail - Petrol Filling stations,,Coventry City Council (LLPG),52.400645,-1.599037,LLPG 9 Jul 2020
24-26 EARLSDON STREET CV5 6EJ,24-26 EARLSDON STREET CV5 6EJ,CV5 6EJ,Commercial - Retail - Banks/financial services,Commercial - Retail - Banks/financial services,,Coventry City Council (LLPG),52.398679,-1.533045,LLPG 9 Jul 2020
CROMWELL GARAGE LTD 217 TORRINGTON AVENUE CV4 9HN,CROMWELL GARAGE LTD 217 TORRINGTON AVENUE CV4 9HN,CV4 9HN,Commercial - Retail - Petrol Filling stations,Commercial - Retail - Petrol Filling stations,,Coventry City Council (LLPG),52.397446,-1.581033,LLPG 9 Jul 2020
217 TORRINGTON AVENUE CV4 9AP,217 TORRINGTON AVENUE CV4 9AP,CV4 9AP,Commercial - Retail - Petrol Filling stations,Commercial - Retail - Petrol Filling stations,,Coventry City Council (LLPG),52.398079,-1.569549,LLPG 9 Jul 2020
HAND CAR WASH 341 HOLBROOK LANE CV6 4DG,HAND CAR WASH 341 HOLBROOK LANE CV6 4DG,CV6 4DG,Commercial - Retail - Retail Service Agent,Commercial - Retail - Retail Service Agent,,Coventry City Council (LLPG),52.444867,-1.509988,LLPG 9 Jul 2020
CRAFTSMAN HAND CAR WASH BEAKE AVENUE CV6 2HT,CRAFTSMAN HAND CAR WASH BEAKE AVENUE CV6 2HT,CV6 2HT,Commercial - Retail - Retail Service Agent,Commercial - Retail - Retail Service Agent,,Coventry City Council (LLPG),52.443263,-1.522217,LLPG 9 Jul 2020
150 JUBILEE CRESCENT CV6 3ES,150 JUBILEE CRESCENT CV6 3ES,CV6 3ES,Commercial - Retail - Other Licensed Premise / Vendor,Commercial - Retail - Other Licensed Premise / Vendor,,Coventry City Council (LLPG),52.430107,-1.516902,LLPG 9 Jul 2020
24A WARWICK ROW CV1 1EY,24A WARWICK ROW CV1 1EY,CV1 1EY,Commercial - Retail - Retail Service Agent,Commercial - Retail - Retail Service Agent,,Coventry City Council (LLPG),52.404469,-1.515095,LLPG 9 Jul 2020
BAGUETTE EXPRESS  ORCHARD LINK UPPER PRECINCT CV1 1QT,BAGUETTE EXPRESS  ORCHARD LINK UPPER PRECINCT CV1 1QT,CV1 1QT,Commercial - Retail - Fast food outlets / takeaways (hot and cold),Commercial - Retail - Fast food outlets / takeaways (hot and cold),,Coventry City Council (LLPG),52.408742,-1.511835,LLPG 9 Jul 2020
185 DAVENTRY ROAD CV3 5HF,185 DAVENTRY ROAD CV3 5HF,CV3 5HF,Commercial - Retail - Other Licensed Premise / Vendor,Commercial - Retail - Other Licensed Premise / Vendor,,Coventry City Council (LLPG),52.394466,-1.505021,LLPG 9 Jul 2020
155 DAVENTRY ROAD CV3 5HD,155 DAVENTRY ROAD CV3 5HD,CV3 5HD,Commercial - Retail - Banks/financial services,Commercial - Retail - Banks/financial services,,Coventry City Council (LLPG),52.394488,-1.506451,LLPG 9 Jul 2020
145-147 DAVENTRY ROAD CV3 5HD,145-147 DAVENTRY ROAD CV3 5HD,CV3 5HD,Commercial - Retail - Banks/financial services,Commercial - Retail - Banks/financial services,,Coventry City Council (LLPG),52.394488,-1.506451,LLPG 9 Jul 2020
133-135 DAVENTRY ROAD CV3 5HD,133-135 DAVENTRY ROAD CV3 5HD,CV3 5HD,Commercial - Retail - Banks/financial services,Commercial - Retail - Banks/financial services,,Coventry City Council (LLPG),52.394488,-1.506451,LLPG 9 Jul 2020
ALLEN FORD CAR SHOWROOM LONDON ROAD CV3 4AA,ALLEN FORD CAR SHOWROOM LONDON ROAD CV3 4AA,CV3 4AA,Commercial - Retail - Petrol Filling stations,Commercial - Retail - Petrol Filling stations,,Coventry City Council (LLPG),52.395917,-1.495217,LLPG 9 Jul 2020
14 QUORN WAY CV3 2JU,14 QUORN WAY CV3 2JU,CV3 2JU,Commercial - Retail - Fast food outlets / takeaways (hot and cold),Commercial - Retail - Fast food outlets / takeaways (hot and cold),,Coventry City Council (LLPG),52.394101,-1.454751,LLPG 9 Jul 2020
UNIT 1D  WARWICKSHIRE SHOPPING PARK KYNNER WAY CV3 2SB,UNIT 1D  WARWICKSHIRE SHOPPING PARK KYNNER WAY CV3 2SB,CV3 2SB,Commercial - Retail - Fast food outlets / takeaways (hot and cold),Commercial - Retail - Fast food outlets / takeaways (hot and cold),,Coventry City Council (LLPG),52.397704,-1.433343,LLPG 9 Jul 2020
UNIT 1A  WARWICKSHIRE SHOPPING PARK KYNNER WAY CV3 2SB,UNIT 1A  WARWICKSHIRE SHOPPING PARK KYNNER WAY CV3 2SB,CV3 2SB,Commercial - Retail - Retail Service Agent,Commercial - Retail - Retail Service Agent,,Coventry City Council (LLPG),52.397704,-1.433343,LLPG 9 Jul 2020
OAK TREE GARAGES LTD OAK TREE ROAD CV3 2RR,OAK TREE GARAGES LTD OAK TREE ROAD CV3 2RR,CV3 2RR,Commercial - Retail - Petrol Filling stations,Commercial - Retail - Petrol Filling stations,,Coventry City Council (LLPG),52.390788,-1.438442,LLPG 9 Jul 2020
CANLEY FORD SERVICE STATION FLETCHAMSTEAD HIGHWAY CV4 7BB,CANLEY FORD SERVICE STATION FLETCHAMSTEAD HIGHWAY CV4 7BB,CV4 7BB,Commercial - Retail - Petrol Filling stations,Commercial - Retail - Petrol Filling stations,,Coventry City Council (LLPG),52.392037,-1.549544,LLPG 9 Jul 2020
3-5 SHELTON SQUARE CV1 1DG,3-5 SHELTON SQUARE CV1 1DG,CV1 1DG,Commercial - Retail - Other Licensed Premise / Vendor,Commercial - Retail - Other Licensed Premise / Vendor,,Coventry City Council (LLPG),52.40618,-1.513695,LLPG 9 Jul 2020
104 REMEMBRANCE ROAD CV3 3DP,104 REMEMBRANCE ROAD CV3 3DP,CV3 3DP,Commercial - Retail - Retail Service Agent,Commercial - Retail - Retail Service Agent,,Coventry City Council (LLPG),52.388988,-1.463131,LLPG 9 Jul 2020
113  INTERNATIONAL RACING WHEELWRIGHT LANE CV6 4HN,113  INTERNATIONAL RACING WHEELWRIGHT LANE CV6 4HN,CV6 4HN,Commercial - Retail - Other Licensed Premise / Vendor,Commercial - Retail - Other Licensed Premise / Vendor,,Coventry City Council (LLPG),52.448874,-1.511371,LLPG 9 Jul 2020
LADBROKE RACING LTD ROBIN HOOD ROAD CV3 3BB,LADBROKE RACING LTD ROBIN HOOD ROAD CV3 3BB,CV3 3BB,Commercial - Retail - Other Licensed Premise / Vendor,Commercial - Retail - Other Licensed Premise / Vendor,,Coventry City Council (LLPG),52.387224,-1.462829,LLPG 9 Jul 2020
TEXACO BLACK PRINCE AVENUE CV3 5JE,TEXACO BLACK PRINCE AVENUE CV3 5JE,CV3 5JE,Commercial - Retail - Petrol Filling stations,Commercial - Retail - Petrol Filling stations,,Coventry City Council (LLPG),52.387494,-1.497531,LLPG 9 Jul 2020
TESCO PETROL FILLING STATION CANNON PARK CENTRE LYNCHGATE ROAD CV4 7EX,TESCO PETROL FILLING STATION CANNON PARK CENTRE LYNCHGATE ROAD CV4 7EX,CV4 7EX,Commercial - Retail - Petrol Filling stations,Commercial - Retail - Petrol Filling stations,,Coventry City Council (LLPG),52.385942,-1.55444,LLPG 9 Jul 2020
PETROL FILLING STATION 497 BEAKE AVENUE CV6 2HT,PETROL FILLING STATION 497 BEAKE AVENUE CV6 2HT,CV6 2HT,Commercial - Retail - Petrol Filling stations,Commercial - Retail - Petrol Filling stations,,Coventry City Council (LLPG),52.443263,-1.522217,LLPG 9 Jul 2020
ROYAL BANK OF SCOTLAND PLC 15  SUN ALLIANCE HOUSE LITTLE PARK STREET CV1 2RN,ROYAL BANK OF SCOTLAND PLC 15  SUN ALLIANCE HOUSE LITTLE PARK STREET CV1 2RN,CV1 2RN,Commercial - Retail - Banks/financial services,Commercial - Retail - Banks/financial services,,Coventry City Council (LLPG),52.406322,-1.508901,LLPG 9 Jul 2020
164-168 QUINTON PARK CV3 5HZ,164-168 QUINTON PARK CV3 5HZ,CV3 5HZ,Commercial - Retail - Other Licensed Premise / Vendor,Commercial - Retail - Other Licensed Premise / Vendor,,Coventry City Council (LLPG),52.390705,-1.504225,LLPG 9 Jul 2020
24 BROADGATE CV1 1NE,24 BROADGATE CV1 1NE,CV1 1NE,Commercial - Retail - Banks/financial services,Commercial - Retail - Banks/financial services,,Coventry City Council (LLPG),52.407578,-1.510475,LLPG 9 Jul 2020
SOVEREIGN CAR SALES DURBAR AVENUE CV6 5QF,SOVEREIGN CAR SALES DURBAR AVENUE CV6 5QF,CV6 5QF,Commercial - Retail - Retail Service Agent,Commercial - Retail - Retail Service Agent,,Coventry City Council (LLPG),52.433742,-1.502463,LLPG 9 Jul 2020
2-4 IRONMONGER ROW CV1 1FD,2-4 IRONMONGER ROW CV1 1FD,CV1 1FD,Commercial - Retail - Other Licensed Premise / Vendor,Commercial - Retail - Other Licensed Premise / Vendor,,Coventry City Council (LLPG),52.409126,-1.510913,LLPG 9 Jul 2020
HILLFIELDS PETROL FILLING STATION HARNALL LANE EAST CV1 5AY,HILLFIELDS PETROL FILLING STATION HARNALL LANE EAST CV1 5AY,CV1 5AY,Commercial - Retail - Petrol Filling stations,Commercial - Retail - Petrol Filling stations,,Coventry City Council (LLPG),52.415357,-1.491716,LLPG 9 Jul 2020
209 COVENTRY RETAIL MARKET QUEEN VICTORIA ROAD CV1 3HT,209 COVENTRY RETAIL MARKET QUEEN VICTORIA ROAD CV1 3HT,CV1 3HT,Commercial - Retail - Markets (indoor and outdoor),Commercial - Retail - Markets (indoor and outdoor),,Coventry City Council (LLPG),52.406991,-1.514382,LLPG 9 Jul 2020
208 COVENTRY RETAIL MARKET QUEEN VICTORIA ROAD CV1 3HT,208 COVENTRY RETAIL MARKET QUEEN VICTORIA ROAD CV1 3HT,CV1 3HT,Commercial - Retail - Markets (indoor and outdoor),Commercial - Retail - Markets (indoor and outdoor),,Coventry City Council (LLPG),52.406991,-1.514382,LLPG 9 Jul 2020
207 COVENTRY RETAIL MARKET QUEEN VICTORIA ROAD CV1 3HT,207 COVENTRY RETAIL MARKET QUEEN VICTORIA ROAD CV1 3HT,CV1 3HT,Commercial - Retail - Markets (indoor and outdoor),Commercial - Retail - Markets (indoor and outdoor),,Coventry City Council (LLPG),52.406991,-1.514382,LLPG 9 Jul 2020
205 COVENTRY RETAIL MARKET QUEEN VICTORIA ROAD CV1 3HT,205 COVENTRY RETAIL MARKET QUEEN VICTORIA ROAD CV1 3HT,CV1 3HT,Commercial - Retail - Markets (indoor and outdoor),Commercial - Retail - Markets (indoor and outdoor),,Coventry City Council (LLPG),52.406991,-1.514382,LLPG 9 Jul 2020
204 COVENTRY RETAIL MARKET QUEEN VICTORIA ROAD CV1 3HT,204 COVENTRY RETAIL MARKET QUEEN VICTORIA ROAD CV1 3HT,CV1 3HT,Commercial - Retail - Markets (indoor and outdoor),Commercial - Retail - Markets (indoor and outdoor),,Coventry City Council (LLPG),52.406991,-1.514382,LLPG 9 Jul 2020
203 COVENTRY RETAIL MARKET QUEEN VICTORIA ROAD CV1 3HT,203 COVENTRY RETAIL MARKET QUEEN VICTORIA ROAD CV1 3HT,CV1 3HT,Commercial - Retail - Markets (indoor and outdoor),Commercial - Retail - Markets (indoor and outdoor),,Coventry City Council (LLPG),52.406991,-1.514382,LLPG 9 Jul 2020
202 COVENTRY RETAIL MARKET QUEEN VICTORIA ROAD CV1 3HT,202 COVENTRY RETAIL MARKET QUEEN VICTORIA ROAD CV1 3HT,CV1 3HT,Commercial - Retail - Markets (indoor and outdoor),Commercial - Retail - Markets (indoor and outdoor),,Coventry City Council (LLPG),52.406991,-1.514382,LLPG 9 Jul 2020
PETROL FILLING STATION ASDA SHOPPING CENTRE BRADE DRIVE CV2 2BL,PETROL FILLING STATION ASDA SHOPPING CENTRE BRADE DRIVE CV2 2BL,CV2 2BL,Commercial - Retail - Petrol Filling stations,Commercial - Retail - Petrol Filling stations,,Coventry City Council (LLPG),52.424694,-1.435506,LLPG 9 Jul 2020
WORKSHOP 84-86 HEATH ROAD MOTORS LTD LONDON ROAD CV1 2JT,WORKSHOP 84-86 HEATH ROAD MOTORS LTD LONDON ROAD CV1 2JT,CV1 2JT,Commercial - Retail - Retail Service Agent,Commercial - Retail - Retail Service Agent,,Coventry City Council (LLPG),52.402772,-1.50065,LLPG 9 Jul 2020
127 RADFORD ROAD CV6 3BQ,127 RADFORD ROAD CV6 3BQ,CV6 3BQ,Commercial - Retail - Retail Service Agent,Commercial - Retail - Retail Service Agent,,Coventry City Council (LLPG),52.420848,-1.5194,LLPG 9 Jul 2020
5 NEW UNION STREET CV1 2HN,5 NEW UNION STREET CV1 2HN,CV1 2HN,Commercial - Retail - Retail Service Agent,Commercial - Retail - Retail Service Agent,,Coventry City Council (LLPG),52.405029,-1.509553,LLPG 9 Jul 2020
SAINSBURY PETROL FILLING STATION AUSTIN DRIVE CV6 7NS,SAINSBURY PETROL FILLING STATION AUSTIN DRIVE CV6 7NS,CV6 7NS,Commercial - Retail - Petrol Filling stations,Commercial - Retail - Petrol Filling stations,,Coventry City Council (LLPG),52.427929,-1.48438,LLPG 9 Jul 2020
201 COVENTRY RETAIL MARKET QUEEN VICTORIA ROAD CV1 3HT,201 COVENTRY RETAIL MARKET QUEEN VICTORIA ROAD CV1 3HT,CV1 3HT,Commercial - Retail - Markets (indoor and outdoor),Commercial - Retail - Markets (indoor and outdoor),,Coventry City Council (LLPG),52.406991,-1.514382,LLPG 9 Jul 2020
200 COVENTRY RETAIL MARKET QUEEN VICTORIA ROAD CV1 3HT,200 COVENTRY RETAIL MARKET QUEEN VICTORIA ROAD CV1 3HT,CV1 3HT,Commercial - Retail - Markets (indoor and outdoor),Commercial - Retail - Markets (indoor and outdoor),,Coventry City Council (LLPG),52.406991,-1.514382,LLPG 9 Jul 2020
199 COVENTRY RETAIL MARKET QUEEN VICTORIA ROAD CV1 3HT,199 COVENTRY RETAIL MARKET QUEEN VICTORIA ROAD CV1 3HT,CV1 3HT,Commercial - Retail - Markets (indoor and outdoor),Commercial - Retail - Markets (indoor and outdoor),,Coventry City Council (LLPG),52.406991,-1.514382,LLPG 9 Jul 2020
198 COVENTRY RETAIL MARKET QUEEN VICTORIA ROAD CV1 3HT,198 COVENTRY RETAIL MARKET QUEEN VICTORIA ROAD CV1 3HT,CV1 3HT,Commercial - Retail - Markets (indoor and outdoor),Commercial - Retail - Markets (indoor and outdoor),,Coventry City Council (LLPG),52.406991,-1.514382,LLPG 9 Jul 2020
197 COVENTRY RETAIL MARKET QUEEN VICTORIA ROAD CV1 3HT,197 COVENTRY RETAIL MARKET QUEEN VICTORIA ROAD CV1 3HT,CV1 3HT,Commercial - Retail - Markets (indoor and outdoor),Commercial - Retail - Markets (indoor and outdoor),,Coventry City Council (LLPG),52.406991,-1.514382,LLPG 9 Jul 2020
196 COVENTRY RETAIL MARKET QUEEN VICTORIA ROAD CV1 3HT,196 COVENTRY RETAIL MARKET QUEEN VICTORIA ROAD CV1 3HT,CV1 3HT,Commercial - Retail - Markets (indoor and outdoor),Commercial - Retail - Markets (indoor and outdoor),,Coventry City Council (LLPG),52.406991,-1.514382,LLPG 9 Jul 2020
195 COVENTRY RETAIL MARKET QUEEN VICTORIA ROAD CV1 3HT,195 COVENTRY RETAIL MARKET QUEEN VICTORIA ROAD CV1 3HT,CV1 3HT,Commercial - Retail - Markets (indoor and outdoor),Commercial - Retail - Markets (indoor and outdoor),,Coventry City Council (LLPG),52.406991,-1.514382,LLPG 9 Jul 2020
194 COVENTRY RETAIL MARKET QUEEN VICTORIA ROAD CV1 3HT,194 COVENTRY RETAIL MARKET QUEEN VICTORIA ROAD CV1 3HT,CV1 3HT,Commercial - Retail - Markets (indoor and outdoor),Commercial - Retail - Markets (indoor and outdoor),,Coventry City Council (LLPG),52.406991,-1.514382,LLPG 9 Jul 2020
193 COVENTRY RETAIL MARKET QUEEN VICTORIA ROAD CV1 3HT,193 COVENTRY RETAIL MARKET QUEEN VICTORIA ROAD CV1 3HT,CV1 3HT,Commercial - Retail - Markets (indoor and outdoor),Commercial - Retail - Markets (indoor and outdoor),,Coventry City Council (LLPG),52.406991,-1.514382,LLPG 9 Jul 2020
192 COVENTRY RETAIL MARKET QUEEN VICTORIA ROAD CV1 3HT,192 COVENTRY RETAIL MARKET QUEEN VICTORIA ROAD CV1 3HT,CV1 3HT,Commercial - Retail - Markets (indoor and outdoor),Commercial - Retail - Markets (indoor and outdoor),,Coventry City Council (LLPG),52.406991,-1.514382,LLPG 9 Jul 2020
191 COVENTRY RETAIL MARKET QUEEN VICTORIA ROAD CV1 3HT,191 COVENTRY RETAIL MARKET QUEEN VICTORIA ROAD CV1 3HT,CV1 3HT,Commercial - Retail - Markets (indoor and outdoor),Commercial - Retail - Markets (indoor and outdoor),,Coventry City Council (LLPG),52.406991,-1.514382,LLPG 9 Jul 2020
190 COVENTRY RETAIL MARKET QUEEN VICTORIA ROAD CV1 3HT,190 COVENTRY RETAIL MARKET QUEEN VICTORIA ROAD CV1 3HT,CV1 3HT,Commercial - Retail - Markets (indoor and outdoor),Commercial - Retail - Markets (indoor and outdoor),,Coventry City Council (LLPG),52.406991,-1.514382,LLPG 9 Jul 2020
189 COVENTRY RETAIL MARKET QUEEN VICTORIA ROAD CV1 3HT,189 COVENTRY RETAIL MARKET QUEEN VICTORIA ROAD CV1 3HT,CV1 3HT,Commercial - Retail - Markets (indoor and outdoor),Commercial - Retail - Markets (indoor and outdoor),,Coventry City Council (LLPG),52.406991,-1.514382,LLPG 9 Jul 2020
188 COVENTRY RETAIL MARKET QUEEN VICTORIA ROAD CV1 3HT,188 COVENTRY RETAIL MARKET QUEEN VICTORIA ROAD CV1 3HT,CV1 3HT,Commercial - Retail - Markets (indoor and outdoor),Commercial - Retail - Markets (indoor and outdoor),,Coventry City Council (LLPG),52.406991,-1.514382,LLPG 9 Jul 2020
187 COVENTRY RETAIL MARKET QUEEN VICTORIA ROAD CV1 3HT,187 COVENTRY RETAIL MARKET QUEEN VICTORIA ROAD CV1 3HT,CV1 3HT,Commercial - Retail - Markets (indoor and outdoor),Commercial - Retail - Markets (indoor and outdoor),,Coventry City Council (LLPG),52.406991,-1.514382,LLPG 9 Jul 2020
186 COVENTRY RETAIL MARKET QUEEN VICTORIA ROAD CV1 3HT,186 COVENTRY RETAIL MARKET QUEEN VICTORIA ROAD CV1 3HT,CV1 3HT,Commercial - Retail - Markets (indoor and outdoor),Commercial - Retail - Markets (indoor and outdoor),,Coventry City Council (LLPG),52.406991,-1.514382,LLPG 9 Jul 2020
185 COVENTRY RETAIL MARKET QUEEN VICTORIA ROAD CV1 3HT,185 COVENTRY RETAIL MARKET QUEEN VICTORIA ROAD CV1 3HT,CV1 3HT,Commercial - Retail - Markets (indoor and outdoor),Commercial - Retail - Markets (indoor and outdoor),,Coventry City Council (LLPG),52.406991,-1.514382,LLPG 9 Jul 2020
BP RUGBY ROAD CONNECT WILLENHALL LANE CV3 2EA,BP RUGBY ROAD CONNECT WILLENHALL LANE CV3 2EA,CV3 2EA,Commercial - Retail - Petrol Filling stations,Commercial - Retail - Petrol Filling stations,,Coventry City Council (LLPG),52.397774,-1.442434,LLPG 9 Jul 2020
524 LONDON ROAD CV3 4EW,524 LONDON ROAD CV3 4EW,CV3 4EW,Commercial - Retail - Petrol Filling stations,Commercial - Retail - Petrol Filling stations,,Coventry City Council (LLPG),52.379884,-1.467918,LLPG 9 Jul 2020
NATWEST BANK UNIVERSITY OF WARWICK GIBBET HILL ROAD CV4 7AL,NATWEST BANK UNIVERSITY OF WARWICK GIBBET HILL ROAD CV4 7AL,CV4 7AL,Commercial - Retail - Banks/financial services,Commercial - Retail - Banks/financial services,,Coventry City Council (LLPG),52.38581,-1.564814,LLPG 9 Jul 2020
BP STONEBRIDGE FILLING STATION STONEBRIDGE HIGHWAY CV3 6RQ,BP STONEBRIDGE FILLING STATION STONEBRIDGE HIGHWAY CV3 6RQ,CV3 6RQ,Commercial - Retail - Petrol Filling stations,Commercial - Retail - Petrol Filling stations,,Coventry City Council (LLPG),52.379037,-1.515344,LLPG 9 Jul 2020
BARCLAYS BANK UNIVERSITY OF WARWICK GIBBET HILL ROAD CV4 7AL,BARCLAYS BANK UNIVERSITY OF WARWICK GIBBET HILL ROAD CV4 7AL,CV4 7AL,Commercial - Retail - Banks/financial services,Commercial - Retail - Banks/financial services,,Coventry City Council (LLPG),52.38581,-1.564814,LLPG 9 Jul 2020
HSBC BANK UNIVERSITY OF WARWICK GIBBET HILL ROAD CV4 7AJ,HSBC BANK UNIVERSITY OF WARWICK GIBBET HILL ROAD CV4 7AJ,CV4 7AJ,Commercial - Retail - Banks/financial services,Commercial - Retail - Banks/financial services,,Coventry City Council (LLPG),52.373502,-1.553144,LLPG 9 Jul 2020
721A  SOUTHBOUND SERVICE STATION LONDON ROAD CV3 4EX,721A  SOUTHBOUND SERVICE STATION LONDON ROAD CV3 4EX,CV3 4EX,Commercial - Retail - Petrol Filling stations,Commercial - Retail - Petrol Filling stations,,Coventry City Council (LLPG),52.378151,-1.464378,LLPG 9 Jul 2020
COVENTRY RETAIL MARKET QUEEN VICTORIA ROAD CV1 3HT,COVENTRY RETAIL MARKET QUEEN VICTORIA ROAD CV1 3HT,CV1 3HT,Commercial - Retail - Markets (indoor and outdoor),Commercial - Retail - Markets (indoor and outdoor),,Coventry City Council (LLPG),52.406991,-1.514382,LLPG 9 Jul 2020
ESSO SERVICE STATION BIRMINGHAM ROAD CV5 9RG,ESSO SERVICE STATION BIRMINGHAM ROAD CV5 9RG,CV5 9RG,Commercial - Retail - Petrol Filling stations,Commercial - Retail - Petrol Filling stations,,Coventry City Council (LLPG),52.434173,-1.604685,LLPG 9 Jul 2020
SIDNEY STRINGER PRIMARY ACADEMY BATH STREET CV1 5GU,SIDNEY STRINGER PRIMARY ACADEMY BATH STREET CV1 5GU,CV1 5GU,Commercial - Education - Primary,Commercial - Education - Primary,,Coventry City Council (LLPG),52.414014,-1.501567,LLPG 9 Jul 2020
HOLY FAMILY CATHOLIC PRIMARY SCHOOL PENNY PARK LANE CV6 2GU,HOLY FAMILY CATHOLIC PRIMARY SCHOOL PENNY PARK LANE CV6 2GU,CV6 2GU,Commercial - Education - Primary,Commercial - Education - Primary,,Coventry City Council (LLPG),52.444659,-1.524953,LLPG 9 Jul 2020
JOHN SHELTON COMMUNITY PRIMARY SCHOOL BRISCOE ROAD CV6 4JP,JOHN SHELTON COMMUNITY PRIMARY SCHOOL BRISCOE ROAD CV6 4JP,CV6 4JP,Commercial - Education - Primary,Commercial - Education - Primary,,Coventry City Council (LLPG),52.448721,-1.507362,LLPG 9 Jul 2020
PARKGATE PRIMARY SCHOOL PARKGATE ROAD CV6 4GF,PARKGATE PRIMARY SCHOOL PARKGATE ROAD CV6 4GF,CV6 4GF,Commercial - Education - Primary,Commercial - Education - Primary,,Coventry City Council (LLPG),52.445485,-1.515969,LLPG 9 Jul 2020
ALDERMANS GREEN COMMUNITY PRIMARY SCHOOL ALDERMANS GREEN ROAD CV2 1PP,ALDERMANS GREEN COMMUNITY PRIMARY SCHOOL ALDERMANS GREEN ROAD CV2 1PP,CV2 1PP,Commercial - Education - Primary,Commercial - Education - Primary,,Coventry City Council (LLPG),52.445733,-1.473064,LLPG 9 Jul 2020
GRANGEHURST PRIMARY SCHOOL ANDERTON ROAD CV6 6JN,GRANGEHURST PRIMARY SCHOOL ANDERTON ROAD CV6 6JN,CV6 6JN,Commercial - Education - Primary,Commercial - Education - Primary,,Coventry City Council (LLPG),52.451869,-1.474035,LLPG 9 Jul 2020
POTTERS GREEN PRIMARY SCHOOL RINGWOOD HIGHWAY CV2 2GF,POTTERS GREEN PRIMARY SCHOOL RINGWOOD HIGHWAY CV2 2GF,CV2 2GF,Commercial - Education - Primary,Commercial - Education - Primary,,Coventry City Council (LLPG),52.440053,-1.451668,LLPG 9 Jul 2020
HOLBROOK COMMUNITY PRIMARY SCHOOL GATESIDE ROAD CV6 6FR,HOLBROOK COMMUNITY PRIMARY SCHOOL GATESIDE ROAD CV6 6FR,CV6 6FR,Commercial - Education - Primary,Commercial - Education - Primary,,Coventry City Council (LLPG),52.439912,-1.496833,LLPG 9 Jul 2020
WHITMORE PARK PRIMARY SCHOOL HALFORD LANE CV6 2HG,WHITMORE PARK PRIMARY SCHOOL HALFORD LANE CV6 2HG,CV6 2HG,Commercial - Education - Primary,Commercial - Education - Primary,,Coventry City Council (LLPG),52.438572,-1.52721,LLPG 9 Jul 2020
KERESLEY GRANGE PRIMARY SCHOOL WASTE LANE CV6 2EH,KERESLEY GRANGE PRIMARY SCHOOL WASTE LANE CV6 2EH,CV6 2EH,Commercial - Education - Primary,Commercial - Education - Primary,,Coventry City Council (LLPG),52.437747,-1.534727,LLPG 9 Jul 2020
ST PATRICKS CATHOLIC PRIMARY SCHOOL DEEDMORE ROAD CV2 1EQ,ST PATRICKS CATHOLIC PRIMARY SCHOOL DEEDMORE ROAD CV2 1EQ,CV2 1EQ,Commercial - Education - Primary,Commercial - Education - Primary,,Coventry City Council (LLPG),52.438195,-1.45809,LLPG 9 Jul 2020
LITTLE HEATH PRIMARY SCHOOL SPRING ROAD CV6 7FN,LITTLE HEATH PRIMARY SCHOOL SPRING ROAD CV6 7FN,CV6 7FN,Commercial - Education - Primary,Commercial - Education - Primary,,Coventry City Council (LLPG),52.435067,-1.488606,LLPG 9 Jul 2020
GOOD SHEPHERD CATHOLIC PRIMARY SCHOOL SPRING ROAD CV6 7FN,GOOD SHEPHERD CATHOLIC PRIMARY SCHOOL SPRING ROAD CV6 7FN,CV6 7FN,Commercial - Education - Primary,Commercial - Education - Primary,,Coventry City Council (LLPG),52.435067,-1.488606,LLPG 9 Jul 2020
SEVA SCHOOL EDEN ROAD CV2 2TB,SEVA SCHOOL EDEN ROAD CV2 2TB,CV2 2TB,Commercial - Education - Primary,Commercial - Education - Primary,,Coventry City Council (LLPG),52.434445,-1.436727,LLPG 9 Jul 2020
EDGEWICK COMMUNITY PRIMARY SCHOOL CROSS ROAD CV6 5GP,EDGEWICK COMMUNITY PRIMARY SCHOOL CROSS ROAD CV6 5GP,CV6 5GP,Commercial - Education - Primary,Commercial - Education - Primary,,Coventry City Council (LLPG),52.432029,-1.494907,LLPG 9 Jul 2020
WHITTLE ACADEMY NARBERTH WAY CV2 2LH,WHITTLE ACADEMY NARBERTH WAY CV2 2LH,CV2 2LH,Commercial - Education - Primary,Commercial - Education - Primary,,Coventry City Council (LLPG),52.431438,-1.443348,LLPG 9 Jul 2020
ST AUGUSTINES CATHOLIC PRIMARY SCHOOL HEATHCOTE STREET CV6 3BL,ST AUGUSTINES CATHOLIC PRIMARY SCHOOL HEATHCOTE STREET CV6 3BL,CV6 3BL,Commercial - Education - Primary,Commercial - Education - Primary,,Coventry City Council (LLPG),52.427323,-1.524748,LLPG 9 Jul 2020
JOSEPH CASH PRIMARY SCHOOL OWENFORD ROAD CV6 3FS,JOSEPH CASH PRIMARY SCHOOL OWENFORD ROAD CV6 3FS,CV6 3FS,Commercial - Education - Primary,Commercial - Education - Primary,,Coventry City Council (LLPG),52.429668,-1.510759,LLPG 9 Jul 2020
HOLLYFAST PRIMARY SCHOOL HOLLYFAST ROAD CV6 2AH,HOLLYFAST PRIMARY SCHOOL HOLLYFAST ROAD CV6 2AH,CV6 2AH,Commercial - Education - Primary,Commercial - Education - Primary,,Coventry City Council (LLPG),52.429685,-1.542312,LLPG 9 Jul 2020
HILL FARM PRIMARY SCHOOL FOSTER ROAD CV6 3BL,HILL FARM PRIMARY SCHOOL FOSTER ROAD CV6 3BL,CV6 3BL,Commercial - Education - Primary,Commercial - Education - Primary,,Coventry City Council (LLPG),52.427323,-1.524748,LLPG 9 Jul 2020
SAINTS PETER AND PAUL CATHOLIC PRIMARY SCHOOL ARKLE DRIVE CV2 2EF,SAINTS PETER AND PAUL CATHOLIC PRIMARY SCHOOL ARKLE DRIVE CV2 2EF,CV2 2EF,Commercial - Education - Primary,Commercial - Education - Primary,,Coventry City Council (LLPG),52.42655,-1.445894,LLPG 9 Jul 2020
ALLESLEY PRIMARY SCHOOL ANTRIM CLOSE CV5 9FY,ALLESLEY PRIMARY SCHOOL ANTRIM CLOSE CV5 9FY,CV5 9FY,Commercial - Education - Primary,Commercial - Education - Primary,,Coventry City Council (LLPG),52.427381,-1.567464,LLPG 9 Jul 2020
WALSGRAVE CHURCH OF ENGLAND PRIMARY SCHOOL SCHOOL HOUSE LANE CV2 2BA,WALSGRAVE CHURCH OF ENGLAND PRIMARY SCHOOL SCHOOL HOUSE LANE CV2 2BA,CV2 2BA,Commercial - Education - Primary,Commercial - Education - Primary,,Coventry City Council (LLPG),52.423718,-1.442033,LLPG 9 Jul 2020
STANTON BRIDGE PRIMARY SCHOOL OLIVER STREET CV6 5TY,STANTON BRIDGE PRIMARY SCHOOL OLIVER STREET CV6 5TY,CV6 5TY,Commercial - Education - Primary,Commercial - Education - Primary,,Coventry City Council (LLPG),52.424936,-1.488724,LLPG 9 Jul 2020
THREE SPIRES PRIMARY SCHOOL KINGSBURY ROAD CV6 1PJ,THREE SPIRES PRIMARY SCHOOL KINGSBURY ROAD CV6 1PJ,CV6 1PJ,Commercial - Education - Primary,Commercial - Education - Primary,,Coventry City Council (LLPG),52.422833,-1.546186,LLPG 9 Jul 2020
BROAD HEATH COMMUNITY PRIMARY SCHOOL HANFORD CLOSE CV6 5DP,BROAD HEATH COMMUNITY PRIMARY SCHOOL HANFORD CLOSE CV6 5DP,CV6 5DP,Commercial - Education - Primary,Commercial - Education - Primary,,Coventry City Council (LLPG),52.424296,-1.49679,LLPG 9 Jul 2020
STOKE HEATH PRIMARY SCHOOL HEATH CRESCENT CV2 4PR,STOKE HEATH PRIMARY SCHOOL HEATH CRESCENT CV2 4PR,CV2 4PR,Commercial - Education - Primary,Commercial - Education - Primary,,Coventry City Council (LLPG),52.421001,-1.483064,LLPG 9 Jul 2020
ST JOHN FISHER CATHOLIC PRIMARY SCHOOL KINETON ROAD CV2 3NR,ST JOHN FISHER CATHOLIC PRIMARY SCHOOL KINETON ROAD CV2 3NR,CV2 3NR,Commercial - Education - Primary,Commercial - Education - Primary,,Coventry City Council (LLPG),52.421417,-1.465413,LLPG 9 Jul 2020
25 WYKEN EXTENDED LEARNING CENTRE TIVERTON ROAD CV2 3DN,25 WYKEN EXTENDED LEARNING CENTRE TIVERTON ROAD CV2 3DN,CV2 3DN,Commercial - Education - Primary,Commercial - Education - Primary,,Coventry City Council (LLPG),52.41984,-1.464521,LLPG 9 Jul 2020
WYKEN CROFT PRIMARY SCHOOL WYKEN CROFT CV2 3AA,WYKEN CROFT PRIMARY SCHOOL WYKEN CROFT CV2 3AA,CV2 3AA,Commercial - Education - Primary,Commercial - Education - Primary,,Coventry City Council (LLPG),52.419692,-1.457912,LLPG 9 Jul 2020
FORMER TIVERTON PRIMARY SCHOOL ROWINGTON CLOSE CV6 1PS,FORMER TIVERTON PRIMARY SCHOOL ROWINGTON CLOSE CV6 1PS,CV6 1PS,Commercial - Education - Primary,Commercial - Education - Primary,,Coventry City Council (LLPG),52.421321,-1.548055,LLPG 9 Jul 2020
RADFORD PRIMARY SCHOOL LAWRENCE SAUNDERS ROAD CV6 1HD,RADFORD PRIMARY SCHOOL LAWRENCE SAUNDERS ROAD CV6 1HD,CV6 1HD,Commercial - Education - Primary,Commercial - Education - Primary,,Coventry City Council (LLPG),52.420225,-1.520981,LLPG 9 Jul 2020
JOHN GULSON PRIMARY SCHOOL GEORGE STREET CV1 4HB,JOHN GULSON PRIMARY SCHOOL GEORGE STREET CV1 4HB,CV1 4HB,Commercial - Education - Primary,Commercial - Education - Primary,,Coventry City Council (LLPG),52.418919,-1.500762,LLPG 9 Jul 2020
PEARL HYDE PRIMARY SCHOOL DORCHESTER WAY CV2 2NB,PEARL HYDE PRIMARY SCHOOL DORCHESTER WAY CV2 2NB,CV2 2NB,Commercial - Education - Primary,Commercial - Education - Primary,,Coventry City Council (LLPG),52.416136,-1.439467,LLPG 9 Jul 2020
EASTERN GREEN JUNIOR SCHOOL SUTTON AVENUE CV5 7EG,EASTERN GREEN JUNIOR SCHOOL SUTTON AVENUE CV5 7EG,CV5 7EG,Commercial - Education - Primary,Commercial - Education - Primary,,Coventry City Council (LLPG),52.41729,-1.596823,LLPG 9 Jul 2020
FREDERICK BIRD PRIMARY SCHOOL SWAN LANE CV2 4QQ,FREDERICK BIRD PRIMARY SCHOOL SWAN LANE CV2 4QQ,CV2 4QQ,Commercial - Education - Primary,Commercial - Education - Primary,,Coventry City Council (LLPG),52.415961,-1.490107,LLPG 9 Jul 2020
PARK HILL PRIMARY SCHOOL LOWER EASTERN GREEN LANE CV5 7LR,PARK HILL PRIMARY SCHOOL LOWER EASTERN GREEN LANE CV5 7LR,CV5 7LR,Commercial - Education - Primary,Commercial - Education - Primary,,Coventry City Council (LLPG),52.416026,-1.574897,LLPG 9 Jul 2020
MOSELEY PRIMARY SCHOOL MOSELEY AVENUE CV6 1AB,MOSELEY PRIMARY SCHOOL MOSELEY AVENUE CV6 1AB,CV6 1AB,Commercial - Education - Primary,Commercial - Education - Primary,,Coventry City Council (LLPG),52.415948,-1.528202,LLPG 9 Jul 2020
ALLESLEY HALL PRIMARY SCHOOL WINSFORD AVENUE CV5 9NG,ALLESLEY HALL PRIMARY SCHOOL WINSFORD AVENUE CV5 9NG,CV5 9NG,Commercial - Education - Primary,Commercial - Education - Primary,,Coventry City Council (LLPG),52.417019,-1.564013,LLPG 9 Jul 2020
BABLAKE SCHOOL COUNDON ROAD CV1 4AU,BABLAKE SCHOOL COUNDON ROAD CV1 4AU,CV1 4AU,Commercial - Education - Primary,Commercial - Education - Primary,,Coventry City Council (LLPG),52.413951,-1.521225,LLPG 9 Jul 2020
BABLAKE JUNIOR SCHOOL COUNDON ROAD CV1 4AU,BABLAKE JUNIOR SCHOOL COUNDON ROAD CV1 4AU,CV1 4AU,Commercial - Education - Primary,Commercial - Education - Primary,,Coventry City Council (LLPG),52.413951,-1.521225,LLPG 9 Jul 2020
STOKE PRIMARY SCHOOL BRITON ROAD CV2 4LF,STOKE PRIMARY SCHOOL BRITON ROAD CV2 4LF,CV2 4LF,Commercial - Education - Primary,Commercial - Education - Primary,,Coventry City Council (LLPG),52.412693,-1.480794,LLPG 9 Jul 2020
ST CHRISTOPHERS PRIMARY SCHOOL ALLESLEY OLD ROAD CV5 9JG,ST CHRISTOPHERS PRIMARY SCHOOL ALLESLEY OLD ROAD CV5 9JG,CV5 9JG,Commercial - Education - Primary,Commercial - Education - Primary,,Coventry City Council (LLPG),52.413116,-1.553534,LLPG 9 Jul 2020
ST JOHNS CHURCH OF ENGLAND PRIMARY SCHOOL WINSFORD AVENUE CV5 9HZ,ST JOHNS CHURCH OF ENGLAND PRIMARY SCHOOL WINSFORD AVENUE CV5 9HZ,CV5 9HZ,Commercial - Education - Primary,Commercial - Education - Primary,,Coventry City Council (LLPG),52.413915,-1.560436,LLPG 9 Jul 2020
RAVENSDALE PRIMARY SCHOOL RAVENSDALE ROAD CV2 5GQ,RAVENSDALE PRIMARY SCHOOL RAVENSDALE ROAD CV2 5GQ,CV2 5GQ,Commercial - Education - Primary,Commercial - Education - Primary,,Coventry City Council (LLPG),52.411831,-1.464794,LLPG 9 Jul 2020
MOUNT NOD PRIMARY SCHOOL GREENLEAF CLOSE CV5 7BG,MOUNT NOD PRIMARY SCHOOL GREENLEAF CLOSE CV5 7BG,CV5 7BG,Commercial - Education - Primary,Commercial - Education - Primary,,Coventry City Council (LLPG),52.412256,-1.57386,LLPG 9 Jul 2020
WHOBERLEY HALL PRIMARY SCHOOL OVERDALE ROAD CV5 8AJ,WHOBERLEY HALL PRIMARY SCHOOL OVERDALE ROAD CV5 8AJ,CV5 8AJ,Commercial - Education - Primary,Commercial - Education - Primary,,Coventry City Council (LLPG),52.409953,-1.553919,LLPG 9 Jul 2020
SOUTHFIELDS PRIMARY SCHOOL EAST STREET CV1 5LS,SOUTHFIELDS PRIMARY SCHOOL EAST STREET CV1 5LS,CV1 5LS,Commercial - Education - Primary,Commercial - Education - Primary,,Coventry City Council (LLPG),52.409998,-1.495747,LLPG 9 Jul 2020
LIMBRICK WOOD PRIMARY SCHOOL BUSH CLOSE CV4 9QT,LIMBRICK WOOD PRIMARY SCHOOL BUSH CLOSE CV4 9QT,CV4 9QT,Commercial - Education - Primary,Commercial - Education - Primary,,Coventry City Council (LLPG),52.410181,-1.579349,LLPG 9 Jul 2020
ST JOHN VIANNEY CATHOLIC PRIMARY SCHOOL MOUNT NOD WAY CV5 7GX,ST JOHN VIANNEY CATHOLIC PRIMARY SCHOOL MOUNT NOD WAY CV5 7GX,CV5 7GX,Commercial - Education - Primary,Commercial - Education - Primary,,Coventry City Council (LLPG),52.40931,-1.564921,LLPG 9 Jul 2020
SACRED HEART CATHOLIC PRIMARY SCHOOL BRAYS LANE CV2 4DW,SACRED HEART CATHOLIC PRIMARY SCHOOL BRAYS LANE CV2 4DW,CV2 4DW,Commercial - Education - Primary,Commercial - Education - Primary,,Coventry City Council (LLPG),52.409642,-1.48008,LLPG 9 Jul 2020
RICHARD LEE PRIMARY SCHOOL THE DRIVE CV2 5FU,RICHARD LEE PRIMARY SCHOOL THE DRIVE CV2 5FU,CV2 5FU,Commercial - Education - Primary,Commercial - Education - Primary,,Coventry City Council (LLPG),52.409384,-1.458597,LLPG 9 Jul 2020
SPON GATE PRIMARY SCHOOL UPPER SPON STREET CV1 3BQ,SPON GATE PRIMARY SCHOOL UPPER SPON STREET CV1 3BQ,CV1 3BQ,Commercial - Education - Primary,Commercial - Education - Primary,,Coventry City Council (LLPG),52.408572,-1.522709,LLPG 9 Jul 2020
SAINT GREGORYS CATHOLIC PRIMARY SCHOOL HARRY ROSE ROAD CV2 5AT,SAINT GREGORYS CATHOLIC PRIMARY SCHOOL HARRY ROSE ROAD CV2 5AT,CV2 5AT,Commercial - Education - Primary,Commercial - Education - Primary,,Coventry City Council (LLPG),52.409643,-1.454265,LLPG 9 Jul 2020
CLIFFORD BRIDGE PRIMARY SCHOOL COOMBE PARK ROAD CV3 2PD,CLIFFORD BRIDGE PRIMARY SCHOOL COOMBE PARK ROAD CV3 2PD,CV3 2PD,Commercial - Education - Primary,Commercial - Education - Primary,,Coventry City Council (LLPG),52.407562,-1.443692,LLPG 9 Jul 2020
GOSFORD PARK PRIMARY SCHOOL HUMBER AVENUE CV1 2SF,GOSFORD PARK PRIMARY SCHOOL HUMBER AVENUE CV1 2SF,CV1 2SF,Commercial - Education - Primary,Commercial - Education - Primary,,Coventry City Council (LLPG),52.404128,-1.489969,LLPG 9 Jul 2020
HEARSALL COMMUNITY PRIMARY SCHOOL KINGSTON ROAD CV5 6LR,HEARSALL COMMUNITY PRIMARY SCHOOL KINGSTON ROAD CV5 6LR,CV5 6LR,Commercial - Education - Primary,Commercial - Education - Primary,,Coventry City Council (LLPG),52.404558,-1.530572,LLPG 9 Jul 2020
ALL SAINTS CHURCH OF ENGLAND PRIMARY SCHOOL STRATHMORE AVENUE CV1 2AF,ALL SAINTS CHURCH OF ENGLAND PRIMARY SCHOOL STRATHMORE AVENUE CV1 2AF,CV1 2AF,Commercial - Education - Primary,Commercial - Education - Primary,,Coventry City Council (LLPG),52.40214,-1.497777,LLPG 9 Jul 2020
EARLSDON PRIMARY SCHOOL EARLSDON AVENUE NORTH CV5 6FZ,EARLSDON PRIMARY SCHOOL EARLSDON AVENUE NORTH CV5 6FZ,CV5 6FZ,Commercial - Education - Primary,Commercial - Education - Primary,,Coventry City Council (LLPG),52.400973,-1.530963,LLPG 9 Jul 2020
TEMPLARS PRIMARY SCHOOL TEMPLAR AVENUE CV4 9DA,TEMPLARS PRIMARY SCHOOL TEMPLAR AVENUE CV4 9DA,CV4 9DA,Commercial - Education - Primary,Commercial - Education - Primary,,Coventry City Council (LLPG),52.400529,-1.572827,LLPG 9 Jul 2020
ERNESFORD GRANGE PRIMARY SCHOOL FOXTON ROAD CV3 2HN,ERNESFORD GRANGE PRIMARY SCHOOL FOXTON ROAD CV3 2HN,CV3 2HN,Commercial - Education - Primary,Commercial - Education - Primary,,Coventry City Council (LLPG),52.399878,-1.452019,LLPG 9 Jul 2020
SOWE VALLEY PRIMARY SCHOOL PRINCETHORPE WAY CV3 2QX,SOWE VALLEY PRIMARY SCHOOL PRINCETHORPE WAY CV3 2QX,CV3 2QX,Commercial - Education - Primary,Commercial - Education - Primary,,Coventry City Council (LLPG),52.394213,-1.457644,LLPG 9 Jul 2020
ST MARY AND ST BENEDICT CATHOLIC PRIMARY SCHOOL LEIGH STREET CV1 5HG,ST MARY AND ST BENEDICT CATHOLIC PRIMARY SCHOOL LEIGH STREET CV1 5HG,CV1 5HG,Commercial - Education - Primary,Commercial - Education - Primary,,Coventry City Council (LLPG),52.414029,-1.496539,LLPG 9 Jul 2020
ST BARTHOLOMEWS CHURCH OF ENGLAND PRIMARY SCHOOL BREDON AVENUE CV3 2LP,ST BARTHOLOMEWS CHURCH OF ENGLAND PRIMARY SCHOOL BREDON AVENUE CV3 2LP,CV3 2LP,Commercial - Education - Primary,Commercial - Education - Primary,,Coventry City Council (LLPG),52.394338,-1.449786,LLPG 9 Jul 2020
ST ANDREWS CHURCH OF ENGLAND INFANT SCHOOL CHURCH LANE CV5 7BX,ST ANDREWS CHURCH OF ENGLAND INFANT SCHOOL CHURCH LANE CV5 7BX,CV5 7BX,Commercial - Education - Primary,Commercial - Education - Primary,,Coventry City Council (LLPG),52.420165,-1.601531,LLPG 9 Jul 2020
COUNDON PRIMARY SCHOOL FORFIELD ROAD CV6 1FQ,COUNDON PRIMARY SCHOOL FORFIELD ROAD CV6 1FQ,CV6 1FQ,Commercial - Education - Primary,Commercial - Education - Primary,,Coventry City Council (LLPG),52.420696,-1.539944,LLPG 9 Jul 2020
CORPUS CHRISTI CATHOLIC PRIMARY SCHOOL LANGBANK AVENUE CV3 2QP,CORPUS CHRISTI CATHOLIC PRIMARY SCHOOL LANGBANK AVENUE CV3 2QP,CV3 2QP,Commercial - Education - Primary,Commercial - Education - Primary,,Coventry City Council (LLPG),52.393093,-1.462449,LLPG 9 Jul 2020
RICHARD LEE CHILDRENS CENTRE THE DRIVE CV2 5FU,RICHARD LEE CHILDRENS CENTRE THE DRIVE CV2 5FU,CV2 5FU,Commercial - Education - Primary,Commercial - Education - Primary,,Coventry City Council (LLPG),52.409384,-1.458597,LLPG 9 Jul 2020
MAIN SCHOOL BUILDING 50 CASTLE WOOD SCHOOL DEEDMORE ROAD CV2 1FN,MAIN SCHOOL BUILDING 50 CASTLE WOOD SCHOOL DEEDMORE ROAD CV2 1FN,CV2 1FN,Commercial - Education - Primary,Commercial - Education - Primary,,Coventry City Council (LLPG),52.435791,-1.46118,LLPG 9 Jul 2020
MANOR PARK PRIMARY SCHOOL ULVERSCROFT ROAD CV3 5EZ,MANOR PARK PRIMARY SCHOOL ULVERSCROFT ROAD CV3 5EZ,CV3 5EZ,Commercial - Education - Primary,Commercial - Education - Primary,,Coventry City Council (LLPG),52.391381,-1.509008,LLPG 9 Jul 2020
736 COURTHOUSE GREEN PRIMARY SCHOOL SEWALL HIGHWAY CV6 7JJ,736 COURTHOUSE GREEN PRIMARY SCHOOL SEWALL HIGHWAY CV6 7JJ,CV6 7JJ,Commercial - Education - Primary,Commercial - Education - Primary,,Coventry City Council (LLPG),52.430722,-1.479553,LLPG 9 Jul 2020
239A ROBIN HOOD ROAD CV3 3AN,239A ROBIN HOOD ROAD CV3 3AN,CV3 3AN,Commercial - Education - Primary,Commercial - Education - Primary,,Coventry City Council (LLPG),52.388805,-1.46832,LLPG 9 Jul 2020
ST ANNES CATHOLIC PRIMARY SCHOOL CHACE AVENUE CV3 3AD,ST ANNES CATHOLIC PRIMARY SCHOOL CHACE AVENUE CV3 3AD,CV3 3AD,Commercial - Education - Primary,Commercial - Education - Primary,,Coventry City Council (LLPG),52.385128,-1.472557,LLPG 9 Jul 2020
STIVICHALL PRIMARY SCHOOL COAT OF ARMS BRIDGE ROAD CV3 6PY,STIVICHALL PRIMARY SCHOOL COAT OF ARMS BRIDGE ROAD CV3 6PY,CV3 6PY,Commercial - Education - Primary,Commercial - Education - Primary,,Coventry City Council (LLPG),52.387273,-1.52719,LLPG 9 Jul 2020
WHITLEY ABBEY PRIMARY SCHOOL ASHINGTON GROVE CV3 4DE,WHITLEY ABBEY PRIMARY SCHOOL ASHINGTON GROVE CV3 4DE,CV3 4DE,Commercial - Education - Primary,Commercial - Education - Primary,,Coventry City Council (LLPG),52.385194,-1.483408,LLPG 9 Jul 2020
WILLENHALL COMMUNITY SCHOOL ST JAMES LANE CV3 3DB,WILLENHALL COMMUNITY SCHOOL ST JAMES LANE CV3 3DB,CV3 3DB,Commercial - Education - Primary,Commercial - Education - Primary,,Coventry City Council (LLPG),52.386398,-1.460899,LLPG 9 Jul 2020
120  ST THOMAS MORE CATHOLIC PRIMARY SCHOOL KNOLL DRIVE CV3 5DE,120  ST THOMAS MORE CATHOLIC PRIMARY SCHOOL KNOLL DRIVE CV3 5DE,CV3 5DE,Commercial - Education - Primary,Commercial - Education - Primary,,Coventry City Council (LLPG),52.385706,-1.508601,LLPG 9 Jul 2020
HOWES PRIMARY SCHOOL PALERMO AVENUE CV3 5EH,HOWES PRIMARY SCHOOL PALERMO AVENUE CV3 5EH,CV3 5EH,Commercial - Education - Primary,Commercial - Education - Primary,,Coventry City Council (LLPG),52.385659,-1.501774,LLPG 9 Jul 2020
JUNIOR BLOCK LIMBRICK WOOD PRIMARY SCHOOL BUSH CLOSE CV4 9QT,JUNIOR BLOCK LIMBRICK WOOD PRIMARY SCHOOL BUSH CLOSE CV4 9QT,CV4 9QT,Commercial - Education - Primary,Commercial - Education - Primary,,Coventry City Council (LLPG),52.410181,-1.579349,LLPG 9 Jul 2020
MAIN SCHOOL BUILDING ST PATRICKS CATHOLIC PRIMARY SCHOOL DEEDMORE ROAD CV2 1EQ,MAIN SCHOOL BUILDING ST PATRICKS CATHOLIC PRIMARY SCHOOL DEEDMORE ROAD CV2 1EQ,CV2 1EQ,Commercial - Education - Primary,Commercial - Education - Primary,,Coventry City Council (LLPG),52.438195,-1.45809,LLPG 9 Jul 2020
MAIN SCHOOL BUILDING STANTON BRIDGE PRIMARY SCHOOL OLIVER STREET CV6 5TY,MAIN SCHOOL BUILDING STANTON BRIDGE PRIMARY SCHOOL OLIVER STREET CV6 5TY,CV6 5TY,Commercial - Education - Primary,Commercial - Education - Primary,,Coventry City Council (LLPG),52.424936,-1.488724,LLPG 9 Jul 2020
INFANT AND JUNIOR BLOCK HOLLYFAST PRIMARY SCHOOL HOLLYFAST ROAD CV6 2AH,INFANT AND JUNIOR BLOCK HOLLYFAST PRIMARY SCHOOL HOLLYFAST ROAD CV6 2AH,CV6 2AH,Commercial - Education - Primary,Commercial - Education - Primary,,Coventry City Council (LLPG),52.429685,-1.542312,LLPG 9 Jul 2020
TOP JUNIOR BLOCK HOLLYFAST PRIMARY SCHOOL HOLLYFAST ROAD CV6 2AH,TOP JUNIOR BLOCK HOLLYFAST PRIMARY SCHOOL HOLLYFAST ROAD CV6 2AH,CV6 2AH,Commercial - Education - Primary,Commercial - Education - Primary,,Coventry City Council (LLPG),52.429685,-1.542312,LLPG 9 Jul 2020
ST OSBURGS CATHOLIC PRIMARY SCHOOL UPPER HILL STREET CV1 4AP,ST OSBURGS CATHOLIC PRIMARY SCHOOL UPPER HILL STREET CV1 4AP,CV1 4AP,Commercial - Education - Primary,Commercial - Education - Primary,,Coventry City Council (LLPG),52.411182,-1.518961,LLPG 9 Jul 2020
ST ELIZABETHS CATHOLIC PRIMARY SCHOOL ST ELIZABETHS ROAD CV6 5BX,ST ELIZABETHS CATHOLIC PRIMARY SCHOOL ST ELIZABETHS ROAD CV6 5BX,CV6 5BX,Commercial - Education - Primary,Commercial - Education - Primary,,Coventry City Council (LLPG),52.429132,-1.494741,LLPG 9 Jul 2020
MOAT HOUSE COMMUNITY PRIMARY SCHOOL DEEDMORE ROAD CV2 1EQ,MOAT HOUSE COMMUNITY PRIMARY SCHOOL DEEDMORE ROAD CV2 1EQ,CV2 1EQ,Commercial - Education - Primary,Commercial - Education - Primary,,Coventry City Council (LLPG),52.438195,-1.45809,LLPG 9 Jul 2020
LEIGH CHURCH OF ENGLAND PRIMARY SCHOOL PLANTS HILL CRESCENT CV4 9RQ,LEIGH CHURCH OF ENGLAND PRIMARY SCHOOL PLANTS HILL CRESCENT CV4 9RQ,CV4 9RQ,Commercial - Education - Primary,Commercial - Education - Primary,,Coventry City Council (LLPG),52.399819,-1.588104,LLPG 9 Jul 2020
GRANGE FARM PRIMARY SCHOOL DEWSBURY AVENUE CV3 6NF,GRANGE FARM PRIMARY SCHOOL DEWSBURY AVENUE CV3 6NF,CV3 6NF,Commercial - Education - Primary,Commercial - Education - Primary,,Coventry City Council (LLPG),52.383812,-1.51801,LLPG 9 Jul 2020
CANNON PARK PRIMARY SCHOOL BRANSFORD AVENUE CV4 7PS,CANNON PARK PRIMARY SCHOOL BRANSFORD AVENUE CV4 7PS,CV4 7PS,Commercial - Education - Primary,Commercial - Education - Primary,,Coventry City Council (LLPG),52.383091,-1.547005,LLPG 9 Jul 2020
ST LAURENCES C OF E PRIMARY SCHOOL OLD CHURCH ROAD CV6 7ED,ST LAURENCES C OF E PRIMARY SCHOOL OLD CHURCH ROAD CV6 7ED,CV6 7ED,Commercial - Education - Primary,Commercial - Education - Primary,,Coventry City Council (LLPG),52.438933,-1.480191,LLPG 9 Jul 2020
HENLEY GREEN PRIMARY SCHOOL WYKEN CROFT CV2 1HQ,HENLEY GREEN PRIMARY SCHOOL WYKEN CROFT CV2 1HQ,CV2 1HQ,Commercial - Education - Primary,Commercial - Education - Primary,,Coventry City Council (LLPG),52.429094,-1.461379,LLPG 9 Jul 2020
1  ALDERMOOR FARM PRIMARY SCHOOL ACORN STREET CV3 1DP,1  ALDERMOOR FARM PRIMARY SCHOOL ACORN STREET CV3 1DP,CV3 1DP,Commercial - Education - Primary,Commercial - Education - Primary,,Coventry City Council (LLPG),52.398437,-1.475229,LLPG 9 Jul 2020
CHRIST THE KING CATHOLIC INFANTS SCHOOL WESTHILL ROAD CV6 2AA,CHRIST THE KING CATHOLIC INFANTS SCHOOL WESTHILL ROAD CV6 2AA,CV6 2AA,Commercial - Education - Primary,Commercial - Education - Primary,,Coventry City Council (LLPG),52.422232,-1.534855,LLPG 9 Jul 2020
ALL SOULS CATHOLIC PRIMARY SCHOOL ABERCORN ROAD CV5 8ED,ALL SOULS CATHOLIC PRIMARY SCHOOL ABERCORN ROAD CV5 8ED,CV5 8ED,Commercial - Education - Primary,Commercial - Education - Primary,,Coventry City Council (LLPG),52.406089,-1.538097,LLPG 9 Jul 2020
OUR LADY OF THE ASSUMPTION CATHOLIC SCHOOL HAWTHORN LANE CV4 9LB,OUR LADY OF THE ASSUMPTION CATHOLIC SCHOOL HAWTHORN LANE CV4 9LB,CV4 9LB,Commercial - Education - Primary,Commercial - Education - Primary,,Coventry City Council (LLPG),52.404628,-1.585267,LLPG 9 Jul 2020
314  CHARTER PRIMARY SCHOOL MITCHELL AVENUE CV4 8DW,314  CHARTER PRIMARY SCHOOL MITCHELL AVENUE CV4 8DW,CV4 8DW,Commercial - Education - Primary,Commercial - Education - Primary,,Coventry City Council (LLPG),52.39362,-1.569176,LLPG 9 Jul 2020
STRETTON CHURCH OF ENGLAND PRIMARY SCHOOL STRETTON AVENUE CV3 3AE,STRETTON CHURCH OF ENGLAND PRIMARY SCHOOL STRETTON AVENUE CV3 3AE,CV3 3AE,Commercial - Education - Primary,Commercial - Education - Primary,,Coventry City Council (LLPG),52.3848,-1.471497,LLPG 9 Jul 2020
FINHAM PRIMARY SCHOOL GREEN LANE CV3 6EJ,FINHAM PRIMARY SCHOOL GREEN LANE CV3 6EJ,CV3 6EJ,Commercial - Education - Primary,Commercial - Education - Primary,,Coventry City Council (LLPG),52.375294,-1.51919,LLPG 9 Jul 2020
8 MILE LANE CV1 2TU,8 MILE LANE CV1 2TU,CV1 2TU,Commercial - Education - Universities,Commercial - Education - Universities,,Coventry City Council (LLPG),52.400963,-1.506506,LLPG 9 Jul 2020
TIVERTON SCHOOL ASHINGTON GROVE CV3 4DE,TIVERTON SCHOOL ASHINGTON GROVE CV3 4DE,CV3 4DE,Commercial - Education - Special needs establishments,Commercial - Education - Special needs establishments,,Coventry City Council (LLPG),52.385194,-1.483408,LLPG 9 Jul 2020
FINHAM PARK 2 TORRINGTON AVENUE CV4 9WT,FINHAM PARK 2 TORRINGTON AVENUE CV4 9WT,CV4 9WT,Commercial - Education - Secondary School,Commercial - Education - Secondary School,,Coventry City Council (LLPG),52.397626,-1.573551,LLPG 9 Jul 2020
SURESTART  STOKE HEATH PRIMARY SCHOOL HEATH CRESCENT CV2 4PR,SURESTART  STOKE HEATH PRIMARY SCHOOL HEATH CRESCENT CV2 4PR,CV2 4PR,Commercial - Education - Nursery/creche,Commercial - Education - Nursery/creche,,Coventry City Council (LLPG),52.421001,-1.483064,LLPG 9 Jul 2020
FOXFORD SCHOOL AND COMMUNITY ARTS COLLEGE ANSELL DRIVE CV6 6BB,FOXFORD SCHOOL AND COMMUNITY ARTS COLLEGE ANSELL DRIVE CV6 6BB,CV6 6BB,Commercial - Education - Secondary School,Commercial - Education - Secondary School,,Coventry City Council (LLPG),52.453406,-1.480021,LLPG 9 Jul 2020
CARDINAL NEWMAN CATHOLIC SCHOOL AND COMMUNITY COLLEGE SANDPITS LANE CV6 2FR,CARDINAL NEWMAN CATHOLIC SCHOOL AND COMMUNITY COLLEGE SANDPITS LANE CV6 2FR,CV6 2FR,Commercial - Education - Secondary School,Commercial - Education - Secondary School,,Coventry City Council (LLPG),52.443076,-1.533826,LLPG 9 Jul 2020
34  DAY NURSERY WINDMILL ROAD CV6 7BP,34  DAY NURSERY WINDMILL ROAD CV6 7BP,CV6 7BP,Commercial - Education - Nursery/creche,Commercial - Education - Nursery/creche,,Coventry City Council (LLPG),52.444213,-1.485131,LLPG 9 Jul 2020
DAY NURSERY GILES CLOSE CV6 4DZ,DAY NURSERY GILES CLOSE CV6 4DZ,CV6 4DZ,Commercial - Education - Nursery/creche,Commercial - Education - Nursery/creche,,Coventry City Council (LLPG),52.440909,-1.513651,LLPG 9 Jul 2020
GRACE ACADEMY WIGSTON ROAD CV2 2RH,GRACE ACADEMY WIGSTON ROAD CV2 2RH,CV2 2RH,Commercial - Education - Secondary School,Commercial - Education - Secondary School,,Coventry City Council (LLPG),52.437565,-1.444418,LLPG 9 Jul 2020
807 FOLESHILL ROAD CV6 5HS,807 FOLESHILL ROAD CV6 5HS,CV6 5HS,Commercial - Education - Nursery/creche,Commercial - Education - Nursery/creche,,Coventry City Council (LLPG),52.434477,-1.495571,LLPG 9 Jul 2020
20  THE LINK WATCOMBE ROAD CV2 1DJ,20  THE LINK WATCOMBE ROAD CV2 1DJ,CV2 1DJ,Commercial - Education - Special needs establishments,Commercial - Education - Special needs establishments,,Coventry City Council (LLPG),52.433181,-1.456725,LLPG 9 Jul 2020
HENLEY COLLEGE HENLEY ROAD CV2 1ED,HENLEY COLLEGE HENLEY ROAD CV2 1ED,CV2 1ED,Commercial - Education - Colleges,Commercial - Education - Colleges,,Coventry City Council (LLPG),52.432257,-1.468915,LLPG 9 Jul 2020
39 WALLACE ROAD CV6 2LY,39 WALLACE ROAD CV6 2LY,CV6 2LY,Commercial - Education - Nursery/creche,Commercial - Education - Nursery/creche,,Coventry City Council (LLPG),52.431502,-1.528521,LLPG 9 Jul 2020
274 HENLEY ROAD CV2 1AX,274 HENLEY ROAD CV2 1AX,CV2 1AX,Commercial - Education - Nursery/creche,Commercial - Education - Nursery/creche,,Coventry City Council (LLPG),52.430512,-1.462854,LLPG 9 Jul 2020
COUNDON COURT SCHOOL AND COMMUNITY COLLEGE NORTH BROOK ROAD CV6 2AJ,COUNDON COURT SCHOOL AND COMMUNITY COLLEGE NORTH BROOK ROAD CV6 2AJ,CV6 2AJ,Commercial - Education - Secondary School,Commercial - Education - Secondary School,,Coventry City Council (LLPG),52.430571,-1.543092,LLPG 9 Jul 2020
178A STATION STREET EAST CV6 5FR,178A STATION STREET EAST CV6 5FR,CV6 5FR,Commercial - Education - Nursery/creche,Commercial - Education - Nursery/creche,,Coventry City Council (LLPG),52.427606,-1.493112,LLPG 9 Jul 2020
LYNG HALL SPECIALIST SPORTS COLLEGE AND COMMUNITY SCHOOL BLACKBERRY LANE CV2 3JS,LYNG HALL SPECIALIST SPORTS COLLEGE AND COMMUNITY SCHOOL BLACKBERRY LANE CV2 3JS,CV2 3JS,Commercial - Education - Secondary School,Commercial - Education - Secondary School,,Coventry City Council (LLPG),52.424394,-1.471796,LLPG 9 Jul 2020
51 PRINCESS STREET CV6 5BW,51 PRINCESS STREET CV6 5BW,CV6 5BW,Commercial - Education - Other educational establishments,Commercial - Education - Other educational establishments,,Coventry City Council (LLPG),52.429225,-1.493027,LLPG 9 Jul 2020
LITTLE ACORNS DAY NURSERY WOODRIDGE AVENUE CV5 7PN,LITTLE ACORNS DAY NURSERY WOODRIDGE AVENUE CV5 7PN,CV5 7PN,Commercial - Education - Nursery/creche,Commercial - Education - Nursery/creche,,Coventry City Council (LLPG),52.422732,-1.574598,LLPG 9 Jul 2020
TIDDLERS NURSERY WYKEN CROFT CV2 3AA,TIDDLERS NURSERY WYKEN CROFT CV2 3AA,CV2 3AA,Commercial - Education - Nursery/creche,Commercial - Education - Nursery/creche,,Coventry City Council (LLPG),52.419692,-1.457912,LLPG 9 Jul 2020
31 EAGLE STREET CV1 4GY,31 EAGLE STREET CV1 4GY,CV1 4GY,Commercial - Education - Nursery/creche,Commercial - Education - Nursery/creche,,Coventry City Council (LLPG),52.41735,-1.502036,LLPG 9 Jul 2020
31 LINKS ROAD CV6 3DQ,31 LINKS ROAD CV6 3DQ,CV6 3DQ,Commercial - Education - Nursery/creche,Commercial - Education - Nursery/creche,,Coventry City Council (LLPG),52.431327,-1.52064,LLPG 9 Jul 2020
74 HARNALL LANE WEST CV1 4FB,74 HARNALL LANE WEST CV1 4FB,CV1 4FB,Commercial - Education - Other educational establishments,Commercial - Education - Other educational establishments,,Coventry City Council (LLPG),52.415808,-1.505229,LLPG 9 Jul 2020
BARRS HILL SCHOOL AND COMMUNITY COLLEGE RADFORD ROAD CV1 4BU,BARRS HILL SCHOOL AND COMMUNITY COLLEGE RADFORD ROAD CV1 4BU,CV1 4BU,Commercial - Education - Secondary School,Commercial - Education - Secondary School,,Coventry City Council (LLPG),52.415216,-1.51608,LLPG 9 Jul 2020
1  HILLFIELDS HUB AT CLARENCE STREET CV1 5SS,1  HILLFIELDS HUB AT CLARENCE STREET CV1 5SS,CV1 5SS,Commercial - Education - Other educational establishments,Commercial - Education - Other educational establishments,,Coventry City Council (LLPG),52.413808,-1.497812,LLPG 9 Jul 2020
30 HEN LANE CV6 4LB,30 HEN LANE CV6 4LB,CV6 4LB,Commercial - Education - Nursery/creche,Commercial - Education - Nursery/creche,,Coventry City Council (LLPG),52.446781,-1.507436,LLPG 9 Jul 2020
WOODLANDS ACADEMY BROAD LANE CV5 7FF,WOODLANDS ACADEMY BROAD LANE CV5 7FF,CV5 7FF,Commercial - Education - Secondary School,Commercial - Education - Secondary School,,Coventry City Council (LLPG),52.413467,-1.591109,LLPG 9 Jul 2020
112 OLDFIELD ROAD CV5 8FW,112 OLDFIELD ROAD CV5 8FW,CV5 8FW,Commercial - Education - Nursery/creche,Commercial - Education - Nursery/creche,,Coventry City Council (LLPG),52.409491,-1.543706,LLPG 9 Jul 2020
25 HARRY ROSE ROAD CV2 5AT,25 HARRY ROSE ROAD CV2 5AT,CV2 5AT,Commercial - Education - Nursery/creche,Commercial - Education - Nursery/creche,,Coventry City Council (LLPG),52.409643,-1.454265,LLPG 9 Jul 2020
SPON END PLAY CENTRE HOPE STREET CV1 3LH,SPON END PLAY CENTRE HOPE STREET CV1 3LH,CV1 3LH,Commercial - Education - Nursery/creche,Commercial - Education - Nursery/creche,,Coventry City Council (LLPG),52.406709,-1.522068,LLPG 9 Jul 2020
34 JORDAN WELL CV1 5RW,34 JORDAN WELL CV1 5RW,CV1 5RW,Commercial - Education - Universities,Commercial - Education - Universities,,Coventry City Council (LLPG),52.406704,-1.505845,LLPG 9 Jul 2020
RICHARD CROSSMAN BUILDING JORDAN WELL CV1 5FB,RICHARD CROSSMAN BUILDING JORDAN WELL CV1 5FB,CV1 5FB,Commercial - Education - Universities,Commercial - Education - Universities,,Coventry City Council (LLPG),52.405314,-1.500063,LLPG 9 Jul 2020
ELLEN TERRY BUILDING JORDAN WELL CV1 5FB,ELLEN TERRY BUILDING JORDAN WELL CV1 5FB,CV1 5FB,Commercial - Education - Universities,Commercial - Education - Universities,,Coventry City Council (LLPG),52.405314,-1.500063,LLPG 9 Jul 2020
236  NHS SURE START CENTRE JARDINE CRESCENT CV4 9PL,236  NHS SURE START CENTRE JARDINE CRESCENT CV4 9PL,CV4 9PL,Commercial - Education - Nursery/creche,Commercial - Education - Nursery/creche,,Coventry City Council (LLPG),52.407214,-1.579274,LLPG 9 Jul 2020
30 NICKSON ROAD CV4 9RU,30 NICKSON ROAD CV4 9RU,CV4 9RU,Commercial - Education - Other educational establishments,Commercial - Education - Other educational establishments,,Coventry City Council (LLPG),52.401001,-1.58414,LLPG 9 Jul 2020
90 BINLEY ROAD CV3 1FQ,90 BINLEY ROAD CV3 1FQ,CV3 1FQ,Commercial - Education - Secondary School,Commercial - Education - Secondary School,,Coventry City Council (LLPG),52.405575,-1.479216,LLPG 9 Jul 2020
30 STOKE GREEN CV3 1AA,30 STOKE GREEN CV3 1AA,CV3 1AA,Commercial - Education - Nursery/creche,Commercial - Education - Nursery/creche,,Coventry City Council (LLPG),52.405331,-1.483144,LLPG 9 Jul 2020
MIDLAND GROUP TRAINING SERVICES LTD GULSON ROAD CV1 2JG,MIDLAND GROUP TRAINING SERVICES LTD GULSON ROAD CV1 2JG,CV1 2JG,Commercial - Education - Other educational establishments,Commercial - Education - Other educational establishments,,Coventry City Council (LLPG),52.405129,-1.49667,LLPG 9 Jul 2020
SMALL FRIES DAY NURSERY HERTFORD PLACE CV1 3JZ,SMALL FRIES DAY NURSERY HERTFORD PLACE CV1 3JZ,CV1 3JZ,Commercial - Education - Nursery/creche,Commercial - Education - Nursery/creche,,Coventry City Council (LLPG),52.405196,-1.519174,LLPG 9 Jul 2020
41 JOBS LANE CV4 9DZ,41 JOBS LANE CV4 9DZ,CV4 9DZ,Commercial - Education - Nursery/creche,Commercial - Education - Nursery/creche,,Coventry City Council (LLPG),52.404243,-1.573056,LLPG 9 Jul 2020
INSTITUTE FOR CREATIVE ENTERPRISE PARKSIDE CV1 2QR,INSTITUTE FOR CREATIVE ENTERPRISE PARKSIDE CV1 2QR,CV1 2QR,Commercial - Education - Universities,Commercial - Education - Universities,,Coventry City Council (LLPG),52.404015,-1.505458,LLPG 9 Jul 2020
TILE HILL WOOD SCHOOL AND LANGUAGE COLLEGE NUTBROOK AVENUE CV4 9PW,TILE HILL WOOD SCHOOL AND LANGUAGE COLLEGE NUTBROOK AVENUE CV4 9PW,CV4 9PW,Commercial - Education - Secondary School,Commercial - Education - Secondary School,,Coventry City Council (LLPG),52.403714,-1.589411,LLPG 9 Jul 2020
347 TILE HILL LANE CV4 9DU,347 TILE HILL LANE CV4 9DU,CV4 9DU,Commercial - Education - Nursery/creche,Commercial - Education - Nursery/creche,,Coventry City Council (LLPG),52.403668,-1.563345,LLPG 9 Jul 2020
365 BELL GREEN ROAD CV6 7HD,365 BELL GREEN ROAD CV6 7HD,CV6 7HD,Commercial - Education - Nursery/creche,Commercial - Education - Nursery/creche,,Coventry City Council (LLPG),52.435154,-1.477647,LLPG 9 Jul 2020
1-3 BEDLAM LANE CV6 6AR,1-3 BEDLAM LANE CV6 6AR,CV6 6AR,Commercial - Education - Nursery/creche,Commercial - Education - Nursery/creche,,Coventry City Council (LLPG),52.442555,-1.496655,LLPG 9 Jul 2020
18 AVON STREET CV2 3GL,18 AVON STREET CV2 3GL,CV2 3GL,Commercial - Education - Nursery/creche,Commercial - Education - Nursery/creche,,Coventry City Council (LLPG),52.417169,-1.476448,LLPG 9 Jul 2020
