Address,Postcode,Type,Status,Source,lat,long,Description
MAXIMS CASINO FLETCHAMSTEAD HIGHWAY CV4 9DW,CV4 9DW,Commercial - Retail - Public House / Bar / Nightclub,,LLPG-BLPU-20200709,52.403918,-1.560938,
STANDARD TRIUMPH RECREATION CLUB TILE HILL LANE CV4 9DG,CV4 9DG,Commercial - Retail - Public House / Bar / Nightclub,,LLPG-BLPU-20200709,52.404172,-1.549126,
BINLEY PARK INN BRINKLOW ROAD CV3 2DS,CV3 2DS,Commercial - Retail - Public House / Bar / Nightclub,,LLPG-BLPU-20200709,52.403819,-1.443048,
THE OLD CLARENCE EARLSDON AVENUE NORTH CV5 6GN,CV5 6GN,Commercial - Retail - Public House / Bar / Nightclub,,LLPG-BLPU-20200709,52.40231,-1.532669,
OUR LADY OF THE ASSUMPTION CHURCH SOCIAL CLUB TILE HILL LANE CV4 9TA,CV4 9TA,Commercial - Retail - Public House / Bar / Nightclub,,LLPG-BLPU-20200709,52.402604,-1.582954,
LIME TREE WORKING MENS CLUB TEMPLAR AVENUE CV4 9BQ,CV4 9BQ,Commercial - Retail - Public House / Bar / Nightclub,,LLPG-BLPU-20200709,52.400827,-1.570722,
215  THE FARMHOUSE BEECHWOOD AVENUE CV5 6HB,CV5 6HB,Commercial - Retail - Public House / Bar / Nightclub,,LLPG-BLPU-20200709,52.401505,-1.542878,
THE BEAR AND STAFF PRINCETHORPE WAY CV3 2HG,CV3 2HG,Commercial - Retail - Public House / Bar / Nightclub,,LLPG-BLPU-20200709,52.400025,-1.452708,
PARKS DEPARTMENT SOCIAL CLUB LONDON ROAD CV1 2JR,CV1 2JR,Commercial - Retail - Public House / Bar / Nightclub,,LLPG-BLPU-20200709,52.400525,-1.494326,
BELL INN STATION AVENUE CV4 9HS,CV4 9HS,Commercial - Retail - Public House / Bar / Nightclub,,LLPG-BLPU-20200709,52.398944,-1.595614,
10 EARLSDON STREET CV5 6EG,CV5 6EG,Commercial - Retail - Public House / Bar / Nightclub,,LLPG-BLPU-20200709,52.399545,-1.531537,
1  THE CITY ARMS EARLSDON STREET CV5 6EP,CV5 6EP,Commercial - Retail - Public House / Bar / Nightclub,,LLPG-BLPU-20200709,52.398961,-1.531916,
22 EARLSDON STREET CV5 6EJ,CV5 6EJ,Commercial - Retail - Public House / Bar / Nightclub,,LLPG-BLPU-20200709,52.398679,-1.533045,
22-24  EARLSDON COTTAGE WARWICK STREET CV5 6ET,CV5 6ET,Commercial - Retail - Public House / Bar / Nightclub,,LLPG-BLPU-20200709,52.39912,-1.533442,
6  STANDARD BEARER SANTOS CLOSE CV3 2FG,CV3 2FG,Commercial - Retail - Public House / Bar / Nightclub,,LLPG-BLPU-20200709,52.397776,-1.448415,
COVENTRY ARMS QUORN WAY CV3 2JU,CV3 2JU,Commercial - Retail - Public House / Bar / Nightclub,,LLPG-BLPU-20200709,52.394101,-1.454751,
58  CRAVEN ARMS CRAVEN STREET CV5 8DW,CV5 8DW,Commercial - Retail - Public House / Bar / Nightclub,,LLPG-BLPU-20200709,52.406385,-1.53366,
50 FREEHOLD STREET CV1 5BH,CV1 5BH,Commercial - Retail - Public House / Bar / Nightclub,,LLPG-BLPU-20200709,52.416196,-1.492618,
THE TOLLGATE HOLYHEAD ROAD CV5 8HU,CV5 8HU,Commercial - Retail - Public House / Bar / Nightclub,,LLPG-BLPU-20200709,52.417439,-1.543963,
THE ROYAL OAK LONDON ROAD CV3 4AL,CV3 4AL,Commercial - Retail - Public House / Bar / Nightclub,,LLPG-BLPU-20200709,52.394143,-1.494502,
1  THE SIGNAL BOX METO LAKHA CLOSE CV6 5BY,CV6 5BY,Commercial - Retail - Public House / Bar / Nightclub,,LLPG-BLPU-20200709,52.429355,-1.493938,
2  THE PENNY FARTHING GRAMERCY PARK CV4 9AE,CV4 9AE,Commercial - Retail - Public House / Bar / Nightclub,,LLPG-BLPU-20200709,52.411621,-1.597903,
THE SOVEREIGN CHARTER AVENUE CV4 8DA,CV4 8DA,Commercial - Retail - Public House / Bar / Nightclub,,LLPG-BLPU-20200709,52.392996,-1.573522,
THE OPEN ARMS DAVENTRY ROAD CV3 5DP,CV3 5DP,Commercial - Retail - Public House / Bar / Nightclub,,LLPG-BLPU-20200709,52.391735,-1.514118,
CHEYLESMORE SOCIAL CLUB QUINTON PARK CV3 5PZ,CV3 5PZ,Commercial - Retail - Public House / Bar / Nightclub,,LLPG-BLPU-20200709,52.391324,-1.503924,
THE PHANTOM COACH FLETCHAMSTEAD HIGHWAY CV4 7BA,CV4 7BA,Commercial - Retail - Public House / Bar / Nightclub,,LLPG-BLPU-20200709,52.391572,-1.550327,
UNIT 4 THE SKYDOME CROFT ROAD CV1 3AZ,CV1 3AZ,Commercial - Retail - Public House / Bar / Nightclub,,LLPG-BLPU-20200709,52.407719,-1.518367,
UNITS 5 AND 6 THE SKYDOME CROFT ROAD CV1 3AZ,CV1 3AZ,Commercial - Retail - Public House / Bar / Nightclub,,LLPG-BLPU-20200709,52.407719,-1.518367,
CROSBYS BAR THE SKY DOME ARENA CROFT ROAD CV1 3LE,CV1 3LE,Commercial - Retail - Public House / Bar / Nightclub,,LLPG-BLPU-20200709,52.407018,-1.516258,
59-61 HOLYHEAD ROAD CV1 3AA,CV1 3AA,Commercial - Retail - Public House / Bar / Nightclub,,LLPG-BLPU-20200709,52.410029,-1.52062,
THE NEW HAVEN DILLOTFORD AVENUE CV3 5DU,CV3 5DU,Commercial - Retail - Public House / Bar / Nightclub,,LLPG-BLPU-20200709,52.38868,-1.507995,
THE GLADE PUBLIC HOUSE WINNALTHORPE CV3 3FB,CV3 3FB,Commercial - Retail - Public House / Bar / Nightclub,,LLPG-BLPU-20200709,52.386676,-1.454901,
G CASINO RICOH ARENA JUDDS LANE CV6 6GE,CV6 6GE,Commercial - Retail - Public House / Bar / Nightclub,,LLPG-BLPU-20200709,52.448284,-1.497421,
GROUND FLOOR OLD FIRE STATION HALES STREET CV1 1JA,CV1 1JA,Commercial - Retail - Public House / Bar / Nightclub,,LLPG-BLPU-20200709,52.4104,-1.507974,
3E IGLU LOWER HOLYHEAD ROAD CV1 3AX,CV1 3AX,Commercial - Retail - Public House / Bar / Nightclub,,LLPG-BLPU-20200709,52.40911,-1.517793,
GROUND FLOOR UNIT 6 THE COURTYARD REAR OF 74 TO 80 WALSGRAVE ROAD CV2 4ED,CV2 4ED,Commercial - Retail - Public House / Bar / Nightclub,,LLPG-BLPU-20200709,52.410554,-1.483068,
49  BURNT POST PUBLIC HOUSE KENPAS HIGHWAY CV3 6AW,CV3 6AW,Commercial - Retail - Public House / Bar / Nightclub,,LLPG-BLPU-20200709,52.384677,-1.52949,
GATE HOUSE TAVERN HILL STREET CV1 4AN,CV1 4AN,Commercial - Retail - Public House / Bar / Nightclub,,LLPG-BLPU-20200709,52.409442,-1.515511,
THE NEW VARSITY GIBBET HILL ROAD CV4 7AJ,CV4 7AJ,Commercial - Retail - Public House / Bar / Nightclub,,LLPG-BLPU-20200709,52.373502,-1.553144,
ELEPHANT AND CASTLE ALDERMANS GREEN ROAD CV2 1NL,CV2 1NL,Commercial - Retail - Public House / Bar / Nightclub,,LLPG-BLPU-20200709,52.452133,-1.466726,
TAYBARNS GIELGUD WAY CV2 2SZ,CV2 2SZ,Commercial - Retail - Public House / Bar / Nightclub,,LLPG-BLPU-20200709,52.434706,-1.429171,
24 BURGES CV1 1HL,CV1 1HL,Commercial - Retail - Public House / Bar / Nightclub,,LLPG-BLPU-20200709,52.41006,-1.510624,
THE ELMS BIRMINGHAM ROAD CV5 9TZ,CV5 9TZ,Commercial - Retail - Public House / Bar / Nightclub,,LLPG-BLPU-20200709,52.422008,-1.556326,
2  AARDVARK BUTTS CV1 3GR,CV1 3GR,Commercial - Retail - Public House / Bar / Nightclub,,LLPG-BLPU-20200709,52.405058,-1.520792,
STYVECHALE ARMS KENPAS HIGHWAY CV3 6PB,CV3 6PB,Commercial - Retail - Public House / Bar / Nightclub,,LLPG-BLPU-20200709,52.380272,-1.520575,
THE SQUIRREL GREYFRIARS LANE CV1 1GY,CV1 1GY,Commercial - Retail - Public House / Bar / Nightclub,,LLPG-BLPU-20200709,52.410436,-1.51231,
FESTIVAL PUBLIC HOUSE FENSIDE AVENUE CV3 5QJ,CV3 5QJ,Commercial - Retail - Public House / Bar / Nightclub,,LLPG-BLPU-20200709,52.37886,-1.503065,
73 BIRMINGHAM ROAD CV5 9GT,CV5 9GT,Commercial - Retail - Public House / Bar / Nightclub,,LLPG-BLPU-20200709,52.423266,-1.560931,
40  ROSE AND WOODBINE PUBLIC HOUSE NORTH STREET CV2 3FW,CV2 3FW,Commercial - Retail - Public House / Bar / Nightclub,,LLPG-BLPU-20200709,52.417835,-1.480733,
COACH AND HORSES LONGFORD ROAD CV6 6BG,CV6 6BG,Commercial - Retail - Public House / Bar / Nightclub,,LLPG-BLPU-20200709,52.451553,-1.485899,
13  STAG AND PHEASANT LOCKHURST LANE CV6 5PD,CV6 5PD,Commercial - Retail - Public House / Bar / Nightclub,,LLPG-BLPU-20200709,52.427929,-1.503366,
296A WALSGRAVE ROAD CV2 4BL,CV2 4BL,Commercial - Retail - Retail Service Agent,,LLPG-BLPU-20200709,52.411114,-1.473506,
GROUND FLOOR 6 LOWER FORD STREET CV1 5QJ,CV1 5QJ,Commercial - Retail - Retail Service Agent,,LLPG-BLPU-20200709,52.410396,-1.502755,
AMAZON DELIVERY LOCKER 719  TILE HILL SERVICE STATION TILE HILL LANE CV4 9HU,CV4 9HU,Commercial - Retail - Retail Service Agent,,LLPG-BLPU-20200709,52.400632,-1.594343,
SAINSBURYS BANK AT SAINSBURYS 330 FLETCHAMSTEAD HIGHWAY CV4 9BJ,CV4 9BJ,Commercial - Retail - Banks/financial services,,LLPG-BLPU-20200709,52.401551,-1.554988,
AMAZON LOCKER  W M MORRISON SUPERMARKET SKIPWORTH ROAD CV3 2XA,CV3 2XA,Commercial - Retail - Retail Service Agent,,LLPG-BLPU-20200709,52.401484,-1.437963,
AMAZON LOCKER MORRISONS SUPERMARKET  ALVIS RETAIL PARK HOLYHEAD ROAD CV5 8BX,CV5 8BX,Commercial - Retail - Retail Service Agent,,LLPG-BLPU-20200709,52.412538,-1.531972,
8A LONGFORD ROAD CV6 6DX,CV6 6DX,Commercial - Retail - Retail Service Agent,,LLPG-BLPU-20200709,52.444953,-1.487815,
KATHLEENS CAFE ALMA STREET CV1 5QA,CV1 5QA,Commercial - Retail - Fast food outlets / takeaways (hot and cold),,LLPG-BLPU-20200709,52.409648,-1.50022,
BUREAU DE CHANGE  ASDA SHOPPING CENTRE BRADE DRIVE CV2 2BL,CV2 2BL,Commercial - Retail - Retail Service Agent,,LLPG-BLPU-20200709,52.424694,-1.435506,
TESCO MOBILE  ARENA RETAIL PARK CLASSIC DRIVE CV6 6EN,CV6 6EN,Commercial - Retail - Retail Service Agent,,LLPG-BLPU-20200709,52.442595,-1.489314,
BUREAU DE CHANGE  ARENA RETAIL PARK CLASSIC DRIVE CV6 6EN,CV6 6EN,Commercial - Retail - Retail Service Agent,,LLPG-BLPU-20200709,52.442595,-1.489314,
5  EASTWOOD BUSINESS VILLAGE HARRY WESTON ROAD CV3 2UB,CV3 2UB,Commercial - Retail - Retail Service Agent,,LLPG-BLPU-20200709,52.40215,-1.443687,
UNIT 7A  FARGO VILLAGE FAR GOSFORD STREET CV1 5ED,CV1 5ED,Commercial - Retail - Retail Service Agent,,LLPG-BLPU-20200709,52.407489,-1.493856,
FIRST FLOOR 63A FAR GOSFORD STREET CV1 5DZ,CV1 5DZ,Commercial - Retail - Retail Service Agent,,LLPG-BLPU-20200709,52.408112,-1.494392,
22 NEW UNION STREET CV1 2HN,CV1 2HN,Commercial - Retail - Retail Service Agent,,LLPG-BLPU-20200709,52.405029,-1.509553,
HAND CAR WASH  TESCO SUPERMARKET OLIVIER WAY CV2 2SH,CV2 2SH,Commercial - Retail - Retail Service Agent,,LLPG-BLPU-20200709,52.432982,-1.431429,
HAND CARWASH REAR OF 1059 FOLESHILL ROAD CV6 6ER,CV6 6ER,Commercial - Retail - Retail Service Agent,,LLPG-BLPU-20200709,52.440251,-1.491812,
57 BENNETTS ROAD NORTH CV7 8JY,CV7 8JY,Commercial - Retail - Fast food outlets / takeaways (hot and cold),,LLPG-BLPU-20200709,52.463167,-1.537986,
KERESLEY GARAGE TAMWORTH ROAD CV7 8JG,CV7 8JG,Commercial - Retail - Petrol Filling stations,,LLPG-BLPU-20200709,52.451178,-1.548441,
318 HOLBROOK LANE CV6 4DJ,CV6 4DJ,Commercial - Retail - Petrol Filling stations,,LLPG-BLPU-20200709,52.444611,-1.509159,
304 HOLBROOK LANE CV6 4DH,CV6 4DH,Commercial - Retail - Other Licensed Premise / Vendor,,LLPG-BLPU-20200709,52.443785,-1.509176,
297  PETROL FILLING STATION HOLBROOK LANE CV6 4DF,CV6 4DF,Commercial - Retail - Petrol Filling stations,,LLPG-BLPU-20200709,52.443392,-1.50974,
916 FOLESHILL ROAD CV6 6GS,CV6 6GS,Commercial - Retail - Retail Service Agent,,LLPG-BLPU-20200709,52.440613,-1.490726,
8 STLES WHEELWRIGHT BUILDINGS HEN LANE CV6 4HF,CV6 4HF,Commercial - Retail - Retail Service Agent,,LLPG-BLPU-20200709,52.446217,-1.510356,
23 BENNETTS ROAD SOUTH CV6 2FN,CV6 2FN,Commercial - Retail - Fast food outlets / takeaways (hot and cold),,LLPG-BLPU-20200709,52.44066,-1.532219,
102A HILLMORTON ROAD CV2 1FW,CV2 1FW,Commercial - Retail - Other Licensed Premise / Vendor,,LLPG-BLPU-20200709,52.438748,-1.463166,
107 PROFFITT AVENUE CV6 7ES,CV6 7ES,Commercial - Retail - Banks/financial services,,LLPG-BLPU-20200709,52.437894,-1.483337,
2 OLD CHURCH ROAD CV6 7BY,CV6 7BY,Commercial - Retail - Other Licensed Premise / Vendor,,LLPG-BLPU-20200709,52.437461,-1.476649,
1 HALL GREEN ROAD CV6 7BX,CV6 7BX,Commercial - Retail - Banks/financial services,,LLPG-BLPU-20200709,52.437317,-1.474724,
650 FOLESHILL ROAD CV6 5HR,CV6 5HR,Commercial - Retail - Petrol Filling stations,,LLPG-BLPU-20200709,52.436885,-1.493101,
64 HOLBROOK LANE CV6 4AB,CV6 4AB,Commercial - Retail - Other Licensed Premise / Vendor,,LLPG-BLPU-20200709,52.434373,-1.505199,
KFC OLIVIER WAY CV2 2SZ,CV2 2SZ,Commercial - Retail - Fast food outlets / takeaways (hot and cold),,LLPG-BLPU-20200709,52.434706,-1.429171,
24 JUBILEE CRESCENT CV6 3ET,CV6 3ET,Commercial - Retail - Petrol Filling stations,,LLPG-BLPU-20200709,52.43129,-1.516396,
30 JUBILEE CRESCENT CV6 3ET,CV6 3ET,Commercial - Retail - Banks/financial services,,LLPG-BLPU-20200709,52.43129,-1.516396,
42-44 JUBILEE CRESCENT CV6 3ET,CV6 3ET,Commercial - Retail - Other Licensed Premise / Vendor,,LLPG-BLPU-20200709,52.43129,-1.516396,
143 HINCKLEY ROAD CV2 2QN,CV2 2QN,Commercial - Retail - Petrol Filling stations,,LLPG-BLPU-20200709,52.430124,-1.439231,
120-124 HINCKLEY ROAD CV2 2EU,CV2 2EU,Commercial - Retail - Petrol Filling stations,,LLPG-BLPU-20200709,52.428373,-1.439739,
168-170 LOCKHURST LANE CV6 5NY,CV6 5NY,Commercial - Retail - Petrol Filling stations,,LLPG-BLPU-20200709,52.42832,-1.502575,
UNIT 5 ASDA SHOPPING CENTRE BRADE DRIVE CV2 2QZ,CV2 2QZ,Commercial - Retail - Markets (indoor and outdoor),,LLPG-BLPU-20200709,52.428973,-1.433414,
UNIT 4 ASDA SHOPPING CENTRE BRADE DRIVE CV2 2QZ,CV2 2QZ,Commercial - Retail - Markets (indoor and outdoor),,LLPG-BLPU-20200709,52.428973,-1.433414,
142 WOODWAY LANE CV2 2EJ,CV2 2EJ,Commercial - Retail - Other Licensed Premise / Vendor,,LLPG-BLPU-20200709,52.428428,-1.445665,
616-620 SEWALL HIGHWAY CV6 7JF,CV6 7JF,Commercial - Retail - Other Licensed Premise / Vendor,,LLPG-BLPU-20200709,52.428276,-1.477316,
422 H S B C BANK FOLESHILL ROAD CV6 5JX,CV6 5JX,Commercial - Retail - Banks/financial services,,LLPG-BLPU-20200709,52.429767,-1.498058,
535-539 FOLESHILL ROAD CV6 5AU,CV6 5AU,Commercial - Retail - Banks/financial services,,LLPG-BLPU-20200709,52.428865,-1.499341,
531 FOLESHILL ROAD CV6 5AU,CV6 5AU,Commercial - Retail - Banks/financial services,,LLPG-BLPU-20200709,52.428865,-1.499341,
4 STATION STREET EAST CV6 5FJ,CV6 5FJ,Commercial - Retail - Retail Service Agent,,LLPG-BLPU-20200709,52.428801,-1.496856,
396-398 FOLESHILL ROAD CV6 5AN,CV6 5AN,Commercial - Retail - Other Licensed Premise / Vendor,,LLPG-BLPU-20200709,52.428693,-1.498902,
519-521 FOLESHILL ROAD CV6 5AU,CV6 5AU,Commercial - Retail - Banks/financial services,,LLPG-BLPU-20200709,52.428865,-1.499341,
358 FOLESHILL ROAD CV6 5AN,CV6 5AN,Commercial - Retail - Other Licensed Premise / Vendor,,LLPG-BLPU-20200709,52.428693,-1.498902,
586B STONEY STANTON ROAD CV6 5FS,CV6 5FS,Commercial - Retail - Retail Service Agent,,LLPG-BLPU-20200709,52.427536,-1.491208,
49 WOODWAY LANE CV2 2EE,CV2 2EE,Commercial - Retail - Fast food outlets / takeaways (hot and cold),,LLPG-BLPU-20200709,52.426365,-1.44472,
JOSHI ESTATES 431 FOLESHILL ROAD CV6 5AQ,CV6 5AQ,Commercial - Retail - Retail Service Agent,,LLPG-BLPU-20200709,52.426607,-1.501146,
RYEHILL SERVICE STATION DUNCHURCH HIGHWAY CV5 9QT,CV5 9QT,Commercial - Retail - Petrol Filling stations,,LLPG-BLPU-20200709,52.425203,-1.571809,
323 FOLESHILL ROAD CV1 4JS,CV1 4JS,Commercial - Retail - Retail Service Agent,,LLPG-BLPU-20200709,52.422308,-1.50493,
LADBROKE RACING LTD TORCROSS AVENUE CV2 3NQ,CV2 3NQ,Commercial - Retail - Other Licensed Premise / Vendor,,LLPG-BLPU-20200709,52.420791,-1.468141,
52 TORCROSS AVENUE CV2 3NQ,CV2 3NQ,Commercial - Retail - Other Licensed Premise / Vendor,,LLPG-BLPU-20200709,52.420791,-1.468141,
430 HOLYHEAD ROAD CV5 8ND,CV5 8ND,Commercial - Retail - Petrol Filling stations,,LLPG-BLPU-20200709,52.419426,-1.546624,
135 AVON STREET CV2 3GH,CV2 3GH,Commercial - Retail - Fast food outlets / takeaways (hot and cold),,LLPG-BLPU-20200709,52.417977,-1.474203,
188 NORTH STREET CV2 3FS,CV2 3FS,Commercial - Retail - Petrol Filling stations,,LLPG-BLPU-20200709,52.418024,-1.476585,
167  PETROL FILLING STATION ANSTY ROAD CV2 3FH,CV2 3FH,Commercial - Retail - Petrol Filling stations,,LLPG-BLPU-20200709,52.416308,-1.462843,
455B-457 HOLYHEAD ROAD CV5 8HU,CV5 8HU,Commercial - Retail - Retail Service Agent,,LLPG-BLPU-20200709,52.417439,-1.543963,
BARRAS HEATH HAND CAR WASH MERCER AVENUE CV2 4PP,CV2 4PP,Commercial - Retail - Retail Service Agent,,LLPG-BLPU-20200709,52.416664,-1.48232,
1A HEATH ROAD CV2 4PY,CV2 4PY,Commercial - Retail - Retail Service Agent,,LLPG-BLPU-20200709,52.414197,-1.48748,
487 HOLYHEAD ROAD CV5 8HU,CV5 8HU,Commercial - Retail - Fast food outlets / takeaways (hot and cold),,LLPG-BLPU-20200709,52.417439,-1.543963,
UNITS 10 T0 11  COVENTRY CANAL BASIN ST NICHOLAS STREET CV1 4LY,CV1 4LY,Commercial - Retail - Retail Service Agent,,LLPG-BLPU-20200709,52.413632,-1.511649,
35 HEATH CRESCENT CV2 4PR,CV2 4PR,Commercial - Retail - Retail Service Agent,,LLPG-BLPU-20200709,52.421001,-1.483064,
11 WHITAKER ROAD CV5 9JE,CV5 9JE,Commercial - Retail - Other Licensed Premise / Vendor,,LLPG-BLPU-20200709,52.413015,-1.555343,
241 WALSGRAVE ROAD CV2 4BB,CV2 4BB,Commercial - Retail - Banks/financial services,,LLPG-BLPU-20200709,52.411216,-1.482208,
292 WALSGRAVE ROAD CV2 4BL,CV2 4BL,Commercial - Retail - Fast food outlets / takeaways (hot and cold),,LLPG-BLPU-20200709,52.411114,-1.473506,
118 WALSGRAVE ROAD CV2 4AX,CV2 4AX,Commercial - Retail - Banks/financial services,,LLPG-BLPU-20200709,52.411235,-1.48034,
223-229 WALSGRAVE ROAD CV2 4HH,CV2 4HH,Commercial - Retail - Banks/financial services,,LLPG-BLPU-20200709,52.41078,-1.483483,
193-195 LONGFELLOW ROAD CV2 5HL,CV2 5HL,Commercial - Retail - Retail Service Agent,,LLPG-BLPU-20200709,52.410529,-1.46137,
98-100 WALSGRAVE ROAD CV2 4ED,CV2 4ED,Commercial - Retail - Banks/financial services,,LLPG-BLPU-20200709,52.410554,-1.483068,
185 WALSGRAVE ROAD CV2 4HH,CV2 4HH,Commercial - Retail - Banks/financial services,,LLPG-BLPU-20200709,52.41078,-1.483483,
6 LOWER FORD STREET CV1 5QJ,CV1 5QJ,Commercial - Retail - Retail Service Agent,,LLPG-BLPU-20200709,52.410396,-1.502755,
11-13 HALES STREET CV1 1JB,CV1 1JB,Commercial - Retail - Fast food outlets / takeaways (hot and cold),,LLPG-BLPU-20200709,52.41048,-1.51036,
9 MINSTER ROAD CV1 3AF,CV1 3AF,Commercial - Retail - Petrol Filling stations,,LLPG-BLPU-20200709,52.410057,-1.523016,
2 NAPIER STREET CV1 5PR,CV1 5PR,Commercial - Retail - Retail Service Agent,,LLPG-BLPU-20200709,52.409617,-1.497133,
HOLLYWOOD NAILS SMITHFORD WAY CV1 1FZ,CV1 1FZ,Commercial - Retail - Retail Service Agent,,LLPG-BLPU-20200709,52.409844,-1.512787,
254 HIPSWELL HIGHWAY CV2 5FS,CV2 5FS,Commercial - Retail - Other Licensed Premise / Vendor,,LLPG-BLPU-20200709,52.408545,-1.459997,
3 TRINITY STREET CV1 1FJ,CV1 1FJ,Commercial - Retail - Fast food outlets / takeaways (hot and cold),,LLPG-BLPU-20200709,52.409776,-1.509604,
THIRD FLOOR 53 CORPORATION STREET CV1 1GX,CV1 1GX,Commercial - Retail - Banks/financial services,,LLPG-BLPU-20200709,52.409464,-1.514394,
25-27 SMITHFORD WAY CV1 1FY,CV1 1FY,Commercial - Retail - Fast food outlets / takeaways (hot and cold),,LLPG-BLPU-20200709,52.40926,-1.513211,
11 SPON STREET CV1 3BA,CV1 3BA,Commercial - Retail - Fast food outlets / takeaways (hot and cold),,LLPG-BLPU-20200709,52.408279,-1.516935,
79 UPPER SPON STREET CV1 3BL,CV1 3BL,Commercial - Retail - Other Licensed Premise / Vendor,,LLPG-BLPU-20200709,52.408324,-1.523476,
70 FAR GOSFORD STREET CV1 5DZ,CV1 5DZ,Commercial - Retail - Fast food outlets / takeaways (hot and cold),,LLPG-BLPU-20200709,52.408112,-1.494392,
96-97 FAR GOSFORD STREET CV1 5EA,CV1 5EA,Commercial - Retail - Other Licensed Premise / Vendor,,LLPG-BLPU-20200709,52.407862,-1.494507,
7 HEARSALL LANE CV5 6HF,CV5 6HF,Commercial - Retail - Retail Service Agent,,LLPG-BLPU-20200709,52.407291,-1.530573,
UNIT 5  CATHEDRAL LANES SHOPPING CENTRE BROADGATE CV1 1LL,CV1 1LL,Commercial - Retail - Banks/financial services,,LLPG-BLPU-20200709,52.407755,-1.509767,
30 FAR GOSFORD STREET CV1 5DW,CV1 5DW,Commercial - Retail - Retail Service Agent,,LLPG-BLPU-20200709,52.407816,-1.496763,
5-6 HIGH STREET CV1 5RE,CV1 5RE,Commercial - Retail - Banks/financial services,,LLPG-BLPU-20200709,52.407374,-1.508875,
7-11 HIGH STREET CV1 5SB,CV1 5SB,Commercial - Retail - Banks/financial services,,LLPG-BLPU-20200709,52.407573,-1.509284,
12 HIGH STREET CV1 5RE,CV1 5RE,Commercial - Retail - Fast food outlets / takeaways (hot and cold),,LLPG-BLPU-20200709,52.407374,-1.508875,
14 HIGH STREET CV1 5RE,CV1 5RE,Commercial - Retail - Banks/financial services,,LLPG-BLPU-20200709,52.407374,-1.508875,
78-79 HERTFORD STREET CV1 1LB,CV1 1LB,Commercial - Retail - Banks/financial services,,LLPG-BLPU-20200709,52.406834,-1.510983,
15 HIGH STREET CV1 5RE,CV1 5RE,Commercial - Retail - Banks/financial services,,LLPG-BLPU-20200709,52.407374,-1.508875,
29 HIGH STREET CV1 5RE,CV1 5RE,Commercial - Retail - Banks/financial services,,LLPG-BLPU-20200709,52.407374,-1.508875,
22 HIGH STREET CV1 5QX,CV1 5QX,Commercial - Retail - Banks/financial services,,LLPG-BLPU-20200709,52.40724,-1.509214,
30 HIGH STREET CV1 5RE,CV1 5RE,Commercial - Retail - Banks/financial services,,LLPG-BLPU-20200709,52.407374,-1.508875,
25 HIGH STREET CV1 5RE,CV1 5RE,Commercial - Retail - Banks/financial services,,LLPG-BLPU-20200709,52.407374,-1.508875,
19-20 HIGH STREET CV1 5RE,CV1 5RE,Commercial - Retail - Banks/financial services,,LLPG-BLPU-20200709,52.407374,-1.508875,
69 HERTFORD STREET CV1 1LB,CV1 1LB,Commercial - Retail - Banks/financial services,,LLPG-BLPU-20200709,52.406834,-1.510983,
68 HERTFORD STREET CV1 1LB,CV1 1LB,Commercial - Retail - Banks/financial services,,LLPG-BLPU-20200709,52.406834,-1.510983,
70 HERTFORD STREET CV1 1LB,CV1 1LB,Commercial - Retail - Retail Service Agent,,LLPG-BLPU-20200709,52.406834,-1.510983,
74 JARDINE CRESCENT CV4 9PQ,CV4 9PQ,Commercial - Retail - Other Licensed Premise / Vendor,,LLPG-BLPU-20200709,52.406653,-1.575781,
73 BINLEY ROAD CV3 1HU,CV3 1HU,Commercial - Retail - Fast food outlets / takeaways (hot and cold),,LLPG-BLPU-20200709,52.406377,-1.477831,
NATIONAL TYRE AND AUTOCARE 65-69 SITE OF GOSFORD STREET CV1 5DL,CV1 5DL,Commercial - Retail - Petrol Filling stations,,LLPG-BLPU-20200709,52.406468,-1.502902,
69 BINLEY ROAD CV3 1HU,CV3 1HU,Commercial - Retail - Fast food outlets / takeaways (hot and cold),,LLPG-BLPU-20200709,52.406377,-1.477831,
59 HERTFORD STREET CV1 1LB,CV1 1LB,Commercial - Retail - Banks/financial services,,LLPG-BLPU-20200709,52.406834,-1.510983,
45-46 HERTFORD STREET CV1 1LF,CV1 1LF,Commercial - Retail - Banks/financial services,,LLPG-BLPU-20200709,52.406837,-1.511585,
134  STOKE PARK SERVICE STATION BINLEY ROAD CV3 1HB,CV3 1HB,Commercial - Retail - Petrol Filling stations,,LLPG-BLPU-20200709,52.406374,-1.475112,
48 HERTFORD STREET CV1 1LF,CV1 1LF,Commercial - Retail - Banks/financial services,,LLPG-BLPU-20200709,52.406837,-1.511585,
51 HERTFORD STREET CV1 1LB,CV1 1LB,Commercial - Retail - Retail Service Agent,,LLPG-BLPU-20200709,52.406834,-1.510983,
8A  SUBWAY BULL YARD CV1 1LH,CV1 1LH,Commercial - Retail - Fast food outlets / takeaways (hot and cold),,LLPG-BLPU-20200709,52.406124,-1.513166,
7 SHELTON SQUARE CV1 1DG,CV1 1DG,Commercial - Retail - Fast food outlets / takeaways (hot and cold),,LLPG-BLPU-20200709,52.40618,-1.513695,
SHAKLETON ROAD GARAGE SHAKLETON ROAD CV5 6HT,CV5 6HT,Commercial - Retail - Petrol Filling stations,,LLPG-BLPU-20200709,52.406456,-1.528582,
6 WARWICK ROW CV1 1EE,CV1 1EE,Commercial - Retail - Banks/financial services,,LLPG-BLPU-20200709,52.405505,-1.513423,
BANK OF SCOTLAND 2 GREYFRIARS ROAD CV1 3RA,CV1 3RA,Commercial - Retail - Banks/financial services,,LLPG-BLPU-20200709,52.405254,-1.515748,
149-151 NEW UNION STREET CV1 2RP,CV1 2RP,Commercial - Retail - Retail Service Agent,,LLPG-BLPU-20200709,52.405182,-1.511471,
34-40 NEW UNION STREET CV1 2HN,CV1 2HN,Commercial - Retail - Retail Service Agent,,LLPG-BLPU-20200709,52.405029,-1.509553,
109  CASTLES LETTING NEW UNION STREET CV1 2NT,CV1 2NT,Commercial - Retail - Retail Service Agent,,LLPG-BLPU-20200709,52.405088,-1.510919,
20 NEW UNION STREET CV1 2HN,CV1 2HN,Commercial - Retail - Retail Service Agent,,LLPG-BLPU-20200709,52.405029,-1.509553,
14  BANSAL HOUSE WARWICK ROW CV1 1EX,CV1 1EX,Commercial - Retail - Retail Service Agent,,LLPG-BLPU-20200709,52.405163,-1.513697,
GROUND FLOOR 121-123 NEW UNION STREET CV1 2NT,CV1 2NT,Commercial - Retail - Retail Service Agent,,LLPG-BLPU-20200709,52.405088,-1.510919,
15-17 WARWICK ROW CV1 1EX,CV1 1EX,Commercial - Retail - Retail Service Agent,,LLPG-BLPU-20200709,52.405163,-1.513697,
1 MANOR TERRACE FRIARS ROAD CV1 2NU,CV1 2NU,Commercial - Retail - Retail Service Agent,,LLPG-BLPU-20200709,52.404683,-1.510404,
4 MANOR TERRACE FRIARS ROAD CV1 2NU,CV1 2NU,Commercial - Retail - Retail Service Agent,,LLPG-BLPU-20200709,52.404683,-1.510404,
23 WARWICK ROW CV1 1EY,CV1 1EY,Commercial - Retail - Retail Service Agent,,LLPG-BLPU-20200709,52.404469,-1.515095,
339 TILE HILL LANE CV4 9DU,CV4 9DU,Commercial - Retail - Other Licensed Premise / Vendor,,LLPG-BLPU-20200709,52.403668,-1.563345,
351 TILE HILL LANE CV4 9DU,CV4 9DU,Commercial - Retail - Banks/financial services,,LLPG-BLPU-20200709,52.403668,-1.563345,
CITROEN CAR SHOWROOM HERALD AVENUE CV5 6UB,CV5 6UB,Commercial - Retail - Petrol Filling stations,,LLPG-BLPU-20200709,52.403256,-1.55239,
110 EASTCOTES CV4 9AS,CV4 9AS,Commercial - Retail - Other Licensed Premise / Vendor,,LLPG-BLPU-20200709,52.40006,-1.562749,
165 ALBANY ROAD CV5 6NE,CV5 6NE,Commercial - Retail - Retail Service Agent,,LLPG-BLPU-20200709,52.40053,-1.528205,
167-169 ALBANY ROAD CV5 6NE,CV5 6NE,Commercial - Retail - Retail Service Agent,,LLPG-BLPU-20200709,52.40053,-1.528205,
715 TILE HILL LANE CV4 9HU,CV4 9HU,Commercial - Retail - Other Licensed Premise / Vendor,,LLPG-BLPU-20200709,52.400632,-1.594343,
719 TILE HILL SERVICE STATION TILE HILL LANE CV4 9HU,CV4 9HU,Commercial - Retail - Petrol Filling stations,,LLPG-BLPU-20200709,52.400632,-1.594343,
55 TANNERS LANE CV4 9HX,CV4 9HX,Commercial - Retail - Petrol Filling stations,,LLPG-BLPU-20200709,52.400645,-1.599037,
24-26 EARLSDON STREET CV5 6EJ,CV5 6EJ,Commercial - Retail - Banks/financial services,,LLPG-BLPU-20200709,52.398679,-1.533045,
CROMWELL GARAGE LTD 217 TORRINGTON AVENUE CV4 9HN,CV4 9HN,Commercial - Retail - Petrol Filling stations,,LLPG-BLPU-20200709,52.397446,-1.581033,
217 TORRINGTON AVENUE CV4 9AP,CV4 9AP,Commercial - Retail - Petrol Filling stations,,LLPG-BLPU-20200709,52.398079,-1.569549,
HAND CAR WASH 341 HOLBROOK LANE CV6 4DG,CV6 4DG,Commercial - Retail - Retail Service Agent,,LLPG-BLPU-20200709,52.444867,-1.509988,
CRAFTSMAN HAND CAR WASH BEAKE AVENUE CV6 2HT,CV6 2HT,Commercial - Retail - Retail Service Agent,,LLPG-BLPU-20200709,52.443263,-1.522217,
150 JUBILEE CRESCENT CV6 3ES,CV6 3ES,Commercial - Retail - Other Licensed Premise / Vendor,,LLPG-BLPU-20200709,52.430107,-1.516902,
24A WARWICK ROW CV1 1EY,CV1 1EY,Commercial - Retail - Retail Service Agent,,LLPG-BLPU-20200709,52.404469,-1.515095,
BAGUETTE EXPRESS  ORCHARD LINK UPPER PRECINCT CV1 1QT,CV1 1QT,Commercial - Retail - Fast food outlets / takeaways (hot and cold),,LLPG-BLPU-20200709,52.408742,-1.511835,
185 DAVENTRY ROAD CV3 5HF,CV3 5HF,Commercial - Retail - Other Licensed Premise / Vendor,,LLPG-BLPU-20200709,52.394466,-1.505021,
155 DAVENTRY ROAD CV3 5HD,CV3 5HD,Commercial - Retail - Banks/financial services,,LLPG-BLPU-20200709,52.394488,-1.506451,
145-147 DAVENTRY ROAD CV3 5HD,CV3 5HD,Commercial - Retail - Banks/financial services,,LLPG-BLPU-20200709,52.394488,-1.506451,
133-135 DAVENTRY ROAD CV3 5HD,CV3 5HD,Commercial - Retail - Banks/financial services,,LLPG-BLPU-20200709,52.394488,-1.506451,
ALLEN FORD CAR SHOWROOM LONDON ROAD CV3 4AA,CV3 4AA,Commercial - Retail - Petrol Filling stations,,LLPG-BLPU-20200709,52.395917,-1.495217,
14 QUORN WAY CV3 2JU,CV3 2JU,Commercial - Retail - Fast food outlets / takeaways (hot and cold),,LLPG-BLPU-20200709,52.394101,-1.454751,
UNIT 1D  WARWICKSHIRE SHOPPING PARK KYNNER WAY CV3 2SB,CV3 2SB,Commercial - Retail - Fast food outlets / takeaways (hot and cold),,LLPG-BLPU-20200709,52.397704,-1.433343,
UNIT 1A  WARWICKSHIRE SHOPPING PARK KYNNER WAY CV3 2SB,CV3 2SB,Commercial - Retail - Retail Service Agent,,LLPG-BLPU-20200709,52.397704,-1.433343,
OAK TREE GARAGES LTD OAK TREE ROAD CV3 2RR,CV3 2RR,Commercial - Retail - Petrol Filling stations,,LLPG-BLPU-20200709,52.390788,-1.438442,
CANLEY FORD SERVICE STATION FLETCHAMSTEAD HIGHWAY CV4 7BB,CV4 7BB,Commercial - Retail - Petrol Filling stations,,LLPG-BLPU-20200709,52.392037,-1.549544,
3-5 SHELTON SQUARE CV1 1DG,CV1 1DG,Commercial - Retail - Other Licensed Premise / Vendor,,LLPG-BLPU-20200709,52.40618,-1.513695,
104 REMEMBRANCE ROAD CV3 3DP,CV3 3DP,Commercial - Retail - Retail Service Agent,,LLPG-BLPU-20200709,52.388988,-1.463131,
113  INTERNATIONAL RACING WHEELWRIGHT LANE CV6 4HN,CV6 4HN,Commercial - Retail - Other Licensed Premise / Vendor,,LLPG-BLPU-20200709,52.448874,-1.511371,
LADBROKE RACING LTD ROBIN HOOD ROAD CV3 3BB,CV3 3BB,Commercial - Retail - Other Licensed Premise / Vendor,,LLPG-BLPU-20200709,52.387224,-1.462829,
TEXACO BLACK PRINCE AVENUE CV3 5JE,CV3 5JE,Commercial - Retail - Petrol Filling stations,,LLPG-BLPU-20200709,52.387494,-1.497531,
TESCO PETROL FILLING STATION CANNON PARK CENTRE LYNCHGATE ROAD CV4 7EX,CV4 7EX,Commercial - Retail - Petrol Filling stations,,LLPG-BLPU-20200709,52.385942,-1.55444,
PETROL FILLING STATION 497 BEAKE AVENUE CV6 2HT,CV6 2HT,Commercial - Retail - Petrol Filling stations,,LLPG-BLPU-20200709,52.443263,-1.522217,
ROYAL BANK OF SCOTLAND PLC 15  SUN ALLIANCE HOUSE LITTLE PARK STREET CV1 2RN,CV1 2RN,Commercial - Retail - Banks/financial services,,LLPG-BLPU-20200709,52.406322,-1.508901,
164-168 QUINTON PARK CV3 5HZ,CV3 5HZ,Commercial - Retail - Other Licensed Premise / Vendor,,LLPG-BLPU-20200709,52.390705,-1.504225,
24 BROADGATE CV1 1NE,CV1 1NE,Commercial - Retail - Banks/financial services,,LLPG-BLPU-20200709,52.407578,-1.510475,
SOVEREIGN CAR SALES DURBAR AVENUE CV6 5QF,CV6 5QF,Commercial - Retail - Retail Service Agent,,LLPG-BLPU-20200709,52.433742,-1.502463,
2-4 IRONMONGER ROW CV1 1FD,CV1 1FD,Commercial - Retail - Other Licensed Premise / Vendor,,LLPG-BLPU-20200709,52.409126,-1.510913,
HILLFIELDS PETROL FILLING STATION HARNALL LANE EAST CV1 5AY,CV1 5AY,Commercial - Retail - Petrol Filling stations,,LLPG-BLPU-20200709,52.415357,-1.491716,
209 COVENTRY RETAIL MARKET QUEEN VICTORIA ROAD CV1 3HT,CV1 3HT,Commercial - Retail - Markets (indoor and outdoor),,LLPG-BLPU-20200709,52.406991,-1.514382,
208 COVENTRY RETAIL MARKET QUEEN VICTORIA ROAD CV1 3HT,CV1 3HT,Commercial - Retail - Markets (indoor and outdoor),,LLPG-BLPU-20200709,52.406991,-1.514382,
207 COVENTRY RETAIL MARKET QUEEN VICTORIA ROAD CV1 3HT,CV1 3HT,Commercial - Retail - Markets (indoor and outdoor),,LLPG-BLPU-20200709,52.406991,-1.514382,
205 COVENTRY RETAIL MARKET QUEEN VICTORIA ROAD CV1 3HT,CV1 3HT,Commercial - Retail - Markets (indoor and outdoor),,LLPG-BLPU-20200709,52.406991,-1.514382,
204 COVENTRY RETAIL MARKET QUEEN VICTORIA ROAD CV1 3HT,CV1 3HT,Commercial - Retail - Markets (indoor and outdoor),,LLPG-BLPU-20200709,52.406991,-1.514382,
203 COVENTRY RETAIL MARKET QUEEN VICTORIA ROAD CV1 3HT,CV1 3HT,Commercial - Retail - Markets (indoor and outdoor),,LLPG-BLPU-20200709,52.406991,-1.514382,
202 COVENTRY RETAIL MARKET QUEEN VICTORIA ROAD CV1 3HT,CV1 3HT,Commercial - Retail - Markets (indoor and outdoor),,LLPG-BLPU-20200709,52.406991,-1.514382,
PETROL FILLING STATION ASDA SHOPPING CENTRE BRADE DRIVE CV2 2BL,CV2 2BL,Commercial - Retail - Petrol Filling stations,,LLPG-BLPU-20200709,52.424694,-1.435506,
WORKSHOP 84-86 HEATH ROAD MOTORS LTD LONDON ROAD CV1 2JT,CV1 2JT,Commercial - Retail - Retail Service Agent,,LLPG-BLPU-20200709,52.402772,-1.50065,
127 RADFORD ROAD CV6 3BQ,CV6 3BQ,Commercial - Retail - Retail Service Agent,,LLPG-BLPU-20200709,52.420848,-1.5194,
5 NEW UNION STREET CV1 2HN,CV1 2HN,Commercial - Retail - Retail Service Agent,,LLPG-BLPU-20200709,52.405029,-1.509553,
SAINSBURY PETROL FILLING STATION AUSTIN DRIVE CV6 7NS,CV6 7NS,Commercial - Retail - Petrol Filling stations,,LLPG-BLPU-20200709,52.427929,-1.48438,
201 COVENTRY RETAIL MARKET QUEEN VICTORIA ROAD CV1 3HT,CV1 3HT,Commercial - Retail - Markets (indoor and outdoor),,LLPG-BLPU-20200709,52.406991,-1.514382,
200 COVENTRY RETAIL MARKET QUEEN VICTORIA ROAD CV1 3HT,CV1 3HT,Commercial - Retail - Markets (indoor and outdoor),,LLPG-BLPU-20200709,52.406991,-1.514382,
199 COVENTRY RETAIL MARKET QUEEN VICTORIA ROAD CV1 3HT,CV1 3HT,Commercial - Retail - Markets (indoor and outdoor),,LLPG-BLPU-20200709,52.406991,-1.514382,
198 COVENTRY RETAIL MARKET QUEEN VICTORIA ROAD CV1 3HT,CV1 3HT,Commercial - Retail - Markets (indoor and outdoor),,LLPG-BLPU-20200709,52.406991,-1.514382,
197 COVENTRY RETAIL MARKET QUEEN VICTORIA ROAD CV1 3HT,CV1 3HT,Commercial - Retail - Markets (indoor and outdoor),,LLPG-BLPU-20200709,52.406991,-1.514382,
196 COVENTRY RETAIL MARKET QUEEN VICTORIA ROAD CV1 3HT,CV1 3HT,Commercial - Retail - Markets (indoor and outdoor),,LLPG-BLPU-20200709,52.406991,-1.514382,
195 COVENTRY RETAIL MARKET QUEEN VICTORIA ROAD CV1 3HT,CV1 3HT,Commercial - Retail - Markets (indoor and outdoor),,LLPG-BLPU-20200709,52.406991,-1.514382,
194 COVENTRY RETAIL MARKET QUEEN VICTORIA ROAD CV1 3HT,CV1 3HT,Commercial - Retail - Markets (indoor and outdoor),,LLPG-BLPU-20200709,52.406991,-1.514382,
193 COVENTRY RETAIL MARKET QUEEN VICTORIA ROAD CV1 3HT,CV1 3HT,Commercial - Retail - Markets (indoor and outdoor),,LLPG-BLPU-20200709,52.406991,-1.514382,
192 COVENTRY RETAIL MARKET QUEEN VICTORIA ROAD CV1 3HT,CV1 3HT,Commercial - Retail - Markets (indoor and outdoor),,LLPG-BLPU-20200709,52.406991,-1.514382,
191 COVENTRY RETAIL MARKET QUEEN VICTORIA ROAD CV1 3HT,CV1 3HT,Commercial - Retail - Markets (indoor and outdoor),,LLPG-BLPU-20200709,52.406991,-1.514382,
190 COVENTRY RETAIL MARKET QUEEN VICTORIA ROAD CV1 3HT,CV1 3HT,Commercial - Retail - Markets (indoor and outdoor),,LLPG-BLPU-20200709,52.406991,-1.514382,
189 COVENTRY RETAIL MARKET QUEEN VICTORIA ROAD CV1 3HT,CV1 3HT,Commercial - Retail - Markets (indoor and outdoor),,LLPG-BLPU-20200709,52.406991,-1.514382,
188 COVENTRY RETAIL MARKET QUEEN VICTORIA ROAD CV1 3HT,CV1 3HT,Commercial - Retail - Markets (indoor and outdoor),,LLPG-BLPU-20200709,52.406991,-1.514382,
187 COVENTRY RETAIL MARKET QUEEN VICTORIA ROAD CV1 3HT,CV1 3HT,Commercial - Retail - Markets (indoor and outdoor),,LLPG-BLPU-20200709,52.406991,-1.514382,
186 COVENTRY RETAIL MARKET QUEEN VICTORIA ROAD CV1 3HT,CV1 3HT,Commercial - Retail - Markets (indoor and outdoor),,LLPG-BLPU-20200709,52.406991,-1.514382,
185 COVENTRY RETAIL MARKET QUEEN VICTORIA ROAD CV1 3HT,CV1 3HT,Commercial - Retail - Markets (indoor and outdoor),,LLPG-BLPU-20200709,52.406991,-1.514382,
BP RUGBY ROAD CONNECT WILLENHALL LANE CV3 2EA,CV3 2EA,Commercial - Retail - Petrol Filling stations,,LLPG-BLPU-20200709,52.397774,-1.442434,
524 LONDON ROAD CV3 4EW,CV3 4EW,Commercial - Retail - Petrol Filling stations,,LLPG-BLPU-20200709,52.379884,-1.467918,
NATWEST BANK UNIVERSITY OF WARWICK GIBBET HILL ROAD CV4 7AL,CV4 7AL,Commercial - Retail - Banks/financial services,,LLPG-BLPU-20200709,52.38581,-1.564814,
BP STONEBRIDGE FILLING STATION STONEBRIDGE HIGHWAY CV3 6RQ,CV3 6RQ,Commercial - Retail - Petrol Filling stations,,LLPG-BLPU-20200709,52.379037,-1.515344,
BARCLAYS BANK UNIVERSITY OF WARWICK GIBBET HILL ROAD CV4 7AL,CV4 7AL,Commercial - Retail - Banks/financial services,,LLPG-BLPU-20200709,52.38581,-1.564814,
HSBC BANK UNIVERSITY OF WARWICK GIBBET HILL ROAD CV4 7AJ,CV4 7AJ,Commercial - Retail - Banks/financial services,,LLPG-BLPU-20200709,52.373502,-1.553144,
721A  SOUTHBOUND SERVICE STATION LONDON ROAD CV3 4EX,CV3 4EX,Commercial - Retail - Petrol Filling stations,,LLPG-BLPU-20200709,52.378151,-1.464378,
COVENTRY RETAIL MARKET QUEEN VICTORIA ROAD CV1 3HT,CV1 3HT,Commercial - Retail - Markets (indoor and outdoor),,LLPG-BLPU-20200709,52.406991,-1.514382,
ESSO SERVICE STATION BIRMINGHAM ROAD CV5 9RG,CV5 9RG,Commercial - Retail - Petrol Filling stations,,LLPG-BLPU-20200709,52.434173,-1.604685,
SIDNEY STRINGER PRIMARY ACADEMY BATH STREET CV1 5GU,CV1 5GU,Commercial - Education - Primary,,LLPG-BLPU-20200709,52.414014,-1.501567,
HOLY FAMILY CATHOLIC PRIMARY SCHOOL PENNY PARK LANE CV6 2GU,CV6 2GU,Commercial - Education - Primary,,LLPG-BLPU-20200709,52.444659,-1.524953,
JOHN SHELTON COMMUNITY PRIMARY SCHOOL BRISCOE ROAD CV6 4JP,CV6 4JP,Commercial - Education - Primary,,LLPG-BLPU-20200709,52.448721,-1.507362,
PARKGATE PRIMARY SCHOOL PARKGATE ROAD CV6 4GF,CV6 4GF,Commercial - Education - Primary,,LLPG-BLPU-20200709,52.445485,-1.515969,
ALDERMANS GREEN COMMUNITY PRIMARY SCHOOL ALDERMANS GREEN ROAD CV2 1PP,CV2 1PP,Commercial - Education - Primary,,LLPG-BLPU-20200709,52.445733,-1.473064,
GRANGEHURST PRIMARY SCHOOL ANDERTON ROAD CV6 6JN,CV6 6JN,Commercial - Education - Primary,,LLPG-BLPU-20200709,52.451869,-1.474035,
POTTERS GREEN PRIMARY SCHOOL RINGWOOD HIGHWAY CV2 2GF,CV2 2GF,Commercial - Education - Primary,,LLPG-BLPU-20200709,52.440053,-1.451668,
HOLBROOK COMMUNITY PRIMARY SCHOOL GATESIDE ROAD CV6 6FR,CV6 6FR,Commercial - Education - Primary,,LLPG-BLPU-20200709,52.439912,-1.496833,
WHITMORE PARK PRIMARY SCHOOL HALFORD LANE CV6 2HG,CV6 2HG,Commercial - Education - Primary,,LLPG-BLPU-20200709,52.438572,-1.52721,
KERESLEY GRANGE PRIMARY SCHOOL WASTE LANE CV6 2EH,CV6 2EH,Commercial - Education - Primary,,LLPG-BLPU-20200709,52.437747,-1.534727,
ST PATRICKS CATHOLIC PRIMARY SCHOOL DEEDMORE ROAD CV2 1EQ,CV2 1EQ,Commercial - Education - Primary,,LLPG-BLPU-20200709,52.438195,-1.45809,
LITTLE HEATH PRIMARY SCHOOL SPRING ROAD CV6 7FN,CV6 7FN,Commercial - Education - Primary,,LLPG-BLPU-20200709,52.435067,-1.488606,
GOOD SHEPHERD CATHOLIC PRIMARY SCHOOL SPRING ROAD CV6 7FN,CV6 7FN,Commercial - Education - Primary,,LLPG-BLPU-20200709,52.435067,-1.488606,
SEVA SCHOOL EDEN ROAD CV2 2TB,CV2 2TB,Commercial - Education - Primary,,LLPG-BLPU-20200709,52.434445,-1.436727,
EDGEWICK COMMUNITY PRIMARY SCHOOL CROSS ROAD CV6 5GP,CV6 5GP,Commercial - Education - Primary,,LLPG-BLPU-20200709,52.432029,-1.494907,
WHITTLE ACADEMY NARBERTH WAY CV2 2LH,CV2 2LH,Commercial - Education - Primary,,LLPG-BLPU-20200709,52.431438,-1.443348,
ST AUGUSTINES CATHOLIC PRIMARY SCHOOL HEATHCOTE STREET CV6 3BL,CV6 3BL,Commercial - Education - Primary,,LLPG-BLPU-20200709,52.427323,-1.524748,
JOSEPH CASH PRIMARY SCHOOL OWENFORD ROAD CV6 3FS,CV6 3FS,Commercial - Education - Primary,,LLPG-BLPU-20200709,52.429668,-1.510759,
HOLLYFAST PRIMARY SCHOOL HOLLYFAST ROAD CV6 2AH,CV6 2AH,Commercial - Education - Primary,,LLPG-BLPU-20200709,52.429685,-1.542312,
HILL FARM PRIMARY SCHOOL FOSTER ROAD CV6 3BL,CV6 3BL,Commercial - Education - Primary,,LLPG-BLPU-20200709,52.427323,-1.524748,
SAINTS PETER AND PAUL CATHOLIC PRIMARY SCHOOL ARKLE DRIVE CV2 2EF,CV2 2EF,Commercial - Education - Primary,,LLPG-BLPU-20200709,52.42655,-1.445894,
ALLESLEY PRIMARY SCHOOL ANTRIM CLOSE CV5 9FY,CV5 9FY,Commercial - Education - Primary,,LLPG-BLPU-20200709,52.427381,-1.567464,
WALSGRAVE CHURCH OF ENGLAND PRIMARY SCHOOL SCHOOL HOUSE LANE CV2 2BA,CV2 2BA,Commercial - Education - Primary,,LLPG-BLPU-20200709,52.423718,-1.442033,
STANTON BRIDGE PRIMARY SCHOOL OLIVER STREET CV6 5TY,CV6 5TY,Commercial - Education - Primary,,LLPG-BLPU-20200709,52.424936,-1.488724,
THREE SPIRES PRIMARY SCHOOL KINGSBURY ROAD CV6 1PJ,CV6 1PJ,Commercial - Education - Primary,,LLPG-BLPU-20200709,52.422833,-1.546186,
BROAD HEATH COMMUNITY PRIMARY SCHOOL HANFORD CLOSE CV6 5DP,CV6 5DP,Commercial - Education - Primary,,LLPG-BLPU-20200709,52.424296,-1.49679,
STOKE HEATH PRIMARY SCHOOL HEATH CRESCENT CV2 4PR,CV2 4PR,Commercial - Education - Primary,,LLPG-BLPU-20200709,52.421001,-1.483064,
ST JOHN FISHER CATHOLIC PRIMARY SCHOOL KINETON ROAD CV2 3NR,CV2 3NR,Commercial - Education - Primary,,LLPG-BLPU-20200709,52.421417,-1.465413,
25 WYKEN EXTENDED LEARNING CENTRE TIVERTON ROAD CV2 3DN,CV2 3DN,Commercial - Education - Primary,,LLPG-BLPU-20200709,52.41984,-1.464521,
WYKEN CROFT PRIMARY SCHOOL WYKEN CROFT CV2 3AA,CV2 3AA,Commercial - Education - Primary,,LLPG-BLPU-20200709,52.419692,-1.457912,
FORMER TIVERTON PRIMARY SCHOOL ROWINGTON CLOSE CV6 1PS,CV6 1PS,Commercial - Education - Primary,,LLPG-BLPU-20200709,52.421321,-1.548055,
RADFORD PRIMARY SCHOOL LAWRENCE SAUNDERS ROAD CV6 1HD,CV6 1HD,Commercial - Education - Primary,,LLPG-BLPU-20200709,52.420225,-1.520981,
JOHN GULSON PRIMARY SCHOOL GEORGE STREET CV1 4HB,CV1 4HB,Commercial - Education - Primary,,LLPG-BLPU-20200709,52.418919,-1.500762,
PEARL HYDE PRIMARY SCHOOL DORCHESTER WAY CV2 2NB,CV2 2NB,Commercial - Education - Primary,,LLPG-BLPU-20200709,52.416136,-1.439467,
EASTERN GREEN JUNIOR SCHOOL SUTTON AVENUE CV5 7EG,CV5 7EG,Commercial - Education - Primary,,LLPG-BLPU-20200709,52.41729,-1.596823,
FREDERICK BIRD PRIMARY SCHOOL SWAN LANE CV2 4QQ,CV2 4QQ,Commercial - Education - Primary,,LLPG-BLPU-20200709,52.415961,-1.490107,
PARK HILL PRIMARY SCHOOL LOWER EASTERN GREEN LANE CV5 7LR,CV5 7LR,Commercial - Education - Primary,,LLPG-BLPU-20200709,52.416026,-1.574897,
MOSELEY PRIMARY SCHOOL MOSELEY AVENUE CV6 1AB,CV6 1AB,Commercial - Education - Primary,,LLPG-BLPU-20200709,52.415948,-1.528202,
ALLESLEY HALL PRIMARY SCHOOL WINSFORD AVENUE CV5 9NG,CV5 9NG,Commercial - Education - Primary,,LLPG-BLPU-20200709,52.417019,-1.564013,
BABLAKE SCHOOL COUNDON ROAD CV1 4AU,CV1 4AU,Commercial - Education - Primary,,LLPG-BLPU-20200709,52.413951,-1.521225,
BABLAKE JUNIOR SCHOOL COUNDON ROAD CV1 4AU,CV1 4AU,Commercial - Education - Primary,,LLPG-BLPU-20200709,52.413951,-1.521225,
STOKE PRIMARY SCHOOL BRITON ROAD CV2 4LF,CV2 4LF,Commercial - Education - Primary,,LLPG-BLPU-20200709,52.412693,-1.480794,
ST CHRISTOPHERS PRIMARY SCHOOL ALLESLEY OLD ROAD CV5 9JG,CV5 9JG,Commercial - Education - Primary,,LLPG-BLPU-20200709,52.413116,-1.553534,
ST JOHNS CHURCH OF ENGLAND PRIMARY SCHOOL WINSFORD AVENUE CV5 9HZ,CV5 9HZ,Commercial - Education - Primary,,LLPG-BLPU-20200709,52.413915,-1.560436,
RAVENSDALE PRIMARY SCHOOL RAVENSDALE ROAD CV2 5GQ,CV2 5GQ,Commercial - Education - Primary,,LLPG-BLPU-20200709,52.411831,-1.464794,
MOUNT NOD PRIMARY SCHOOL GREENLEAF CLOSE CV5 7BG,CV5 7BG,Commercial - Education - Primary,,LLPG-BLPU-20200709,52.412256,-1.57386,
WHOBERLEY HALL PRIMARY SCHOOL OVERDALE ROAD CV5 8AJ,CV5 8AJ,Commercial - Education - Primary,,LLPG-BLPU-20200709,52.409953,-1.553919,
SOUTHFIELDS PRIMARY SCHOOL EAST STREET CV1 5LS,CV1 5LS,Commercial - Education - Primary,,LLPG-BLPU-20200709,52.409998,-1.495747,
LIMBRICK WOOD PRIMARY SCHOOL BUSH CLOSE CV4 9QT,CV4 9QT,Commercial - Education - Primary,,LLPG-BLPU-20200709,52.410181,-1.579349,
ST JOHN VIANNEY CATHOLIC PRIMARY SCHOOL MOUNT NOD WAY CV5 7GX,CV5 7GX,Commercial - Education - Primary,,LLPG-BLPU-20200709,52.40931,-1.564921,
SACRED HEART CATHOLIC PRIMARY SCHOOL BRAYS LANE CV2 4DW,CV2 4DW,Commercial - Education - Primary,,LLPG-BLPU-20200709,52.409642,-1.48008,
RICHARD LEE PRIMARY SCHOOL THE DRIVE CV2 5FU,CV2 5FU,Commercial - Education - Primary,,LLPG-BLPU-20200709,52.409384,-1.458597,
SPON GATE PRIMARY SCHOOL UPPER SPON STREET CV1 3BQ,CV1 3BQ,Commercial - Education - Primary,,LLPG-BLPU-20200709,52.408572,-1.522709,
SAINT GREGORYS CATHOLIC PRIMARY SCHOOL HARRY ROSE ROAD CV2 5AT,CV2 5AT,Commercial - Education - Primary,,LLPG-BLPU-20200709,52.409643,-1.454265,
CLIFFORD BRIDGE PRIMARY SCHOOL COOMBE PARK ROAD CV3 2PD,CV3 2PD,Commercial - Education - Primary,,LLPG-BLPU-20200709,52.407562,-1.443692,
GOSFORD PARK PRIMARY SCHOOL HUMBER AVENUE CV1 2SF,CV1 2SF,Commercial - Education - Primary,,LLPG-BLPU-20200709,52.404128,-1.489969,
HEARSALL COMMUNITY PRIMARY SCHOOL KINGSTON ROAD CV5 6LR,CV5 6LR,Commercial - Education - Primary,,LLPG-BLPU-20200709,52.404558,-1.530572,
ALL SAINTS CHURCH OF ENGLAND PRIMARY SCHOOL STRATHMORE AVENUE CV1 2AF,CV1 2AF,Commercial - Education - Primary,,LLPG-BLPU-20200709,52.40214,-1.497777,
EARLSDON PRIMARY SCHOOL EARLSDON AVENUE NORTH CV5 6FZ,CV5 6FZ,Commercial - Education - Primary,,LLPG-BLPU-20200709,52.400973,-1.530963,
TEMPLARS PRIMARY SCHOOL TEMPLAR AVENUE CV4 9DA,CV4 9DA,Commercial - Education - Primary,,LLPG-BLPU-20200709,52.400529,-1.572827,
ERNESFORD GRANGE PRIMARY SCHOOL FOXTON ROAD CV3 2HN,CV3 2HN,Commercial - Education - Primary,,LLPG-BLPU-20200709,52.399878,-1.452019,
SOWE VALLEY PRIMARY SCHOOL PRINCETHORPE WAY CV3 2QX,CV3 2QX,Commercial - Education - Primary,,LLPG-BLPU-20200709,52.394213,-1.457644,
ST MARY AND ST BENEDICT CATHOLIC PRIMARY SCHOOL LEIGH STREET CV1 5HG,CV1 5HG,Commercial - Education - Primary,,LLPG-BLPU-20200709,52.414029,-1.496539,
ST BARTHOLOMEWS CHURCH OF ENGLAND PRIMARY SCHOOL BREDON AVENUE CV3 2LP,CV3 2LP,Commercial - Education - Primary,,LLPG-BLPU-20200709,52.394338,-1.449786,
ST ANDREWS CHURCH OF ENGLAND INFANT SCHOOL CHURCH LANE CV5 7BX,CV5 7BX,Commercial - Education - Primary,,LLPG-BLPU-20200709,52.420165,-1.601531,
COUNDON PRIMARY SCHOOL FORFIELD ROAD CV6 1FQ,CV6 1FQ,Commercial - Education - Primary,,LLPG-BLPU-20200709,52.420696,-1.539944,
CORPUS CHRISTI CATHOLIC PRIMARY SCHOOL LANGBANK AVENUE CV3 2QP,CV3 2QP,Commercial - Education - Primary,,LLPG-BLPU-20200709,52.393093,-1.462449,
RICHARD LEE CHILDRENS CENTRE THE DRIVE CV2 5FU,CV2 5FU,Commercial - Education - Primary,,LLPG-BLPU-20200709,52.409384,-1.458597,
MAIN SCHOOL BUILDING 50 CASTLE WOOD SCHOOL DEEDMORE ROAD CV2 1FN,CV2 1FN,Commercial - Education - Primary,,LLPG-BLPU-20200709,52.435791,-1.46118,
MANOR PARK PRIMARY SCHOOL ULVERSCROFT ROAD CV3 5EZ,CV3 5EZ,Commercial - Education - Primary,,LLPG-BLPU-20200709,52.391381,-1.509008,
736 COURTHOUSE GREEN PRIMARY SCHOOL SEWALL HIGHWAY CV6 7JJ,CV6 7JJ,Commercial - Education - Primary,,LLPG-BLPU-20200709,52.430722,-1.479553,
239A ROBIN HOOD ROAD CV3 3AN,CV3 3AN,Commercial - Education - Primary,,LLPG-BLPU-20200709,52.388805,-1.46832,
ST ANNES CATHOLIC PRIMARY SCHOOL CHACE AVENUE CV3 3AD,CV3 3AD,Commercial - Education - Primary,,LLPG-BLPU-20200709,52.385128,-1.472557,
STIVICHALL PRIMARY SCHOOL COAT OF ARMS BRIDGE ROAD CV3 6PY,CV3 6PY,Commercial - Education - Primary,,LLPG-BLPU-20200709,52.387273,-1.52719,
WHITLEY ABBEY PRIMARY SCHOOL ASHINGTON GROVE CV3 4DE,CV3 4DE,Commercial - Education - Primary,,LLPG-BLPU-20200709,52.385194,-1.483408,
WILLENHALL COMMUNITY SCHOOL ST JAMES LANE CV3 3DB,CV3 3DB,Commercial - Education - Primary,,LLPG-BLPU-20200709,52.386398,-1.460899,
120  ST THOMAS MORE CATHOLIC PRIMARY SCHOOL KNOLL DRIVE CV3 5DE,CV3 5DE,Commercial - Education - Primary,,LLPG-BLPU-20200709,52.385706,-1.508601,
HOWES PRIMARY SCHOOL PALERMO AVENUE CV3 5EH,CV3 5EH,Commercial - Education - Primary,,LLPG-BLPU-20200709,52.385659,-1.501774,
JUNIOR BLOCK LIMBRICK WOOD PRIMARY SCHOOL BUSH CLOSE CV4 9QT,CV4 9QT,Commercial - Education - Primary,,LLPG-BLPU-20200709,52.410181,-1.579349,
MAIN SCHOOL BUILDING ST PATRICKS CATHOLIC PRIMARY SCHOOL DEEDMORE ROAD CV2 1EQ,CV2 1EQ,Commercial - Education - Primary,,LLPG-BLPU-20200709,52.438195,-1.45809,
MAIN SCHOOL BUILDING STANTON BRIDGE PRIMARY SCHOOL OLIVER STREET CV6 5TY,CV6 5TY,Commercial - Education - Primary,,LLPG-BLPU-20200709,52.424936,-1.488724,
INFANT AND JUNIOR BLOCK HOLLYFAST PRIMARY SCHOOL HOLLYFAST ROAD CV6 2AH,CV6 2AH,Commercial - Education - Primary,,LLPG-BLPU-20200709,52.429685,-1.542312,
TOP JUNIOR BLOCK HOLLYFAST PRIMARY SCHOOL HOLLYFAST ROAD CV6 2AH,CV6 2AH,Commercial - Education - Primary,,LLPG-BLPU-20200709,52.429685,-1.542312,
ST OSBURGS CATHOLIC PRIMARY SCHOOL UPPER HILL STREET CV1 4AP,CV1 4AP,Commercial - Education - Primary,,LLPG-BLPU-20200709,52.411182,-1.518961,
ST ELIZABETHS CATHOLIC PRIMARY SCHOOL ST ELIZABETHS ROAD CV6 5BX,CV6 5BX,Commercial - Education - Primary,,LLPG-BLPU-20200709,52.429132,-1.494741,
MOAT HOUSE COMMUNITY PRIMARY SCHOOL DEEDMORE ROAD CV2 1EQ,CV2 1EQ,Commercial - Education - Primary,,LLPG-BLPU-20200709,52.438195,-1.45809,
LEIGH CHURCH OF ENGLAND PRIMARY SCHOOL PLANTS HILL CRESCENT CV4 9RQ,CV4 9RQ,Commercial - Education - Primary,,LLPG-BLPU-20200709,52.399819,-1.588104,
GRANGE FARM PRIMARY SCHOOL DEWSBURY AVENUE CV3 6NF,CV3 6NF,Commercial - Education - Primary,,LLPG-BLPU-20200709,52.383812,-1.51801,
CANNON PARK PRIMARY SCHOOL BRANSFORD AVENUE CV4 7PS,CV4 7PS,Commercial - Education - Primary,,LLPG-BLPU-20200709,52.383091,-1.547005,
ST LAURENCES C OF E PRIMARY SCHOOL OLD CHURCH ROAD CV6 7ED,CV6 7ED,Commercial - Education - Primary,,LLPG-BLPU-20200709,52.438933,-1.480191,
HENLEY GREEN PRIMARY SCHOOL WYKEN CROFT CV2 1HQ,CV2 1HQ,Commercial - Education - Primary,,LLPG-BLPU-20200709,52.429094,-1.461379,
1  ALDERMOOR FARM PRIMARY SCHOOL ACORN STREET CV3 1DP,CV3 1DP,Commercial - Education - Primary,,LLPG-BLPU-20200709,52.398437,-1.475229,
CHRIST THE KING CATHOLIC INFANTS SCHOOL WESTHILL ROAD CV6 2AA,CV6 2AA,Commercial - Education - Primary,,LLPG-BLPU-20200709,52.422232,-1.534855,
ALL SOULS CATHOLIC PRIMARY SCHOOL ABERCORN ROAD CV5 8ED,CV5 8ED,Commercial - Education - Primary,,LLPG-BLPU-20200709,52.406089,-1.538097,
OUR LADY OF THE ASSUMPTION CATHOLIC SCHOOL HAWTHORN LANE CV4 9LB,CV4 9LB,Commercial - Education - Primary,,LLPG-BLPU-20200709,52.404628,-1.585267,
314  CHARTER PRIMARY SCHOOL MITCHELL AVENUE CV4 8DW,CV4 8DW,Commercial - Education - Primary,,LLPG-BLPU-20200709,52.39362,-1.569176,
STRETTON CHURCH OF ENGLAND PRIMARY SCHOOL STRETTON AVENUE CV3 3AE,CV3 3AE,Commercial - Education - Primary,,LLPG-BLPU-20200709,52.3848,-1.471497,
FINHAM PRIMARY SCHOOL GREEN LANE CV3 6EJ,CV3 6EJ,Commercial - Education - Primary,,LLPG-BLPU-20200709,52.375294,-1.51919,
8 MILE LANE CV1 2TU,CV1 2TU,Commercial - Education - Universities,,LLPG-BLPU-20200709,52.400963,-1.506506,
TIVERTON SCHOOL ASHINGTON GROVE CV3 4DE,CV3 4DE,Commercial - Education - Special needs establishments,,LLPG-BLPU-20200709,52.385194,-1.483408,
FINHAM PARK 2 TORRINGTON AVENUE CV4 9WT,CV4 9WT,Commercial - Education - Secondary School,,LLPG-BLPU-20200709,52.397626,-1.573551,
SURESTART  STOKE HEATH PRIMARY SCHOOL HEATH CRESCENT CV2 4PR,CV2 4PR,Commercial - Education - Nursery/creche,,LLPG-BLPU-20200709,52.421001,-1.483064,
FOXFORD SCHOOL AND COMMUNITY ARTS COLLEGE ANSELL DRIVE CV6 6BB,CV6 6BB,Commercial - Education - Secondary School,,LLPG-BLPU-20200709,52.453406,-1.480021,
CARDINAL NEWMAN CATHOLIC SCHOOL AND COMMUNITY COLLEGE SANDPITS LANE CV6 2FR,CV6 2FR,Commercial - Education - Secondary School,,LLPG-BLPU-20200709,52.443076,-1.533826,
34  DAY NURSERY WINDMILL ROAD CV6 7BP,CV6 7BP,Commercial - Education - Nursery/creche,,LLPG-BLPU-20200709,52.444213,-1.485131,
DAY NURSERY GILES CLOSE CV6 4DZ,CV6 4DZ,Commercial - Education - Nursery/creche,,LLPG-BLPU-20200709,52.440909,-1.513651,
GRACE ACADEMY WIGSTON ROAD CV2 2RH,CV2 2RH,Commercial - Education - Secondary School,,LLPG-BLPU-20200709,52.437565,-1.444418,
807 FOLESHILL ROAD CV6 5HS,CV6 5HS,Commercial - Education - Nursery/creche,,LLPG-BLPU-20200709,52.434477,-1.495571,
20  THE LINK WATCOMBE ROAD CV2 1DJ,CV2 1DJ,Commercial - Education - Special needs establishments,,LLPG-BLPU-20200709,52.433181,-1.456725,
HENLEY COLLEGE HENLEY ROAD CV2 1ED,CV2 1ED,Commercial - Education - Colleges,,LLPG-BLPU-20200709,52.432257,-1.468915,
39 WALLACE ROAD CV6 2LY,CV6 2LY,Commercial - Education - Nursery/creche,,LLPG-BLPU-20200709,52.431502,-1.528521,
274 HENLEY ROAD CV2 1AX,CV2 1AX,Commercial - Education - Nursery/creche,,LLPG-BLPU-20200709,52.430512,-1.462854,
COUNDON COURT SCHOOL AND COMMUNITY COLLEGE NORTH BROOK ROAD CV6 2AJ,CV6 2AJ,Commercial - Education - Secondary School,,LLPG-BLPU-20200709,52.430571,-1.543092,
178A STATION STREET EAST CV6 5FR,CV6 5FR,Commercial - Education - Nursery/creche,,LLPG-BLPU-20200709,52.427606,-1.493112,
LYNG HALL SPECIALIST SPORTS COLLEGE AND COMMUNITY SCHOOL BLACKBERRY LANE CV2 3JS,CV2 3JS,Commercial - Education - Secondary School,,LLPG-BLPU-20200709,52.424394,-1.471796,
51 PRINCESS STREET CV6 5BW,CV6 5BW,Commercial - Education - Other educational establishments,,LLPG-BLPU-20200709,52.429225,-1.493027,
LITTLE ACORNS DAY NURSERY WOODRIDGE AVENUE CV5 7PN,CV5 7PN,Commercial - Education - Nursery/creche,,LLPG-BLPU-20200709,52.422732,-1.574598,
TIDDLERS NURSERY WYKEN CROFT CV2 3AA,CV2 3AA,Commercial - Education - Nursery/creche,,LLPG-BLPU-20200709,52.419692,-1.457912,
31 EAGLE STREET CV1 4GY,CV1 4GY,Commercial - Education - Nursery/creche,,LLPG-BLPU-20200709,52.41735,-1.502036,
31 LINKS ROAD CV6 3DQ,CV6 3DQ,Commercial - Education - Nursery/creche,,LLPG-BLPU-20200709,52.431327,-1.52064,
74 HARNALL LANE WEST CV1 4FB,CV1 4FB,Commercial - Education - Other educational establishments,,LLPG-BLPU-20200709,52.415808,-1.505229,
BARRS HILL SCHOOL AND COMMUNITY COLLEGE RADFORD ROAD CV1 4BU,CV1 4BU,Commercial - Education - Secondary School,,LLPG-BLPU-20200709,52.415216,-1.51608,
1  HILLFIELDS HUB AT CLARENCE STREET CV1 5SS,CV1 5SS,Commercial - Education - Other educational establishments,,LLPG-BLPU-20200709,52.413808,-1.497812,
30 HEN LANE CV6 4LB,CV6 4LB,Commercial - Education - Nursery/creche,,LLPG-BLPU-20200709,52.446781,-1.507436,
WOODLANDS ACADEMY BROAD LANE CV5 7FF,CV5 7FF,Commercial - Education - Secondary School,,LLPG-BLPU-20200709,52.413467,-1.591109,
112 OLDFIELD ROAD CV5 8FW,CV5 8FW,Commercial - Education - Nursery/creche,,LLPG-BLPU-20200709,52.409491,-1.543706,
25 HARRY ROSE ROAD CV2 5AT,CV2 5AT,Commercial - Education - Nursery/creche,,LLPG-BLPU-20200709,52.409643,-1.454265,
SPON END PLAY CENTRE HOPE STREET CV1 3LH,CV1 3LH,Commercial - Education - Nursery/creche,,LLPG-BLPU-20200709,52.406709,-1.522068,
34 JORDAN WELL CV1 5RW,CV1 5RW,Commercial - Education - Universities,,LLPG-BLPU-20200709,52.406704,-1.505845,
RICHARD CROSSMAN BUILDING JORDAN WELL CV1 5FB,CV1 5FB,Commercial - Education - Universities,,LLPG-BLPU-20200709,52.405314,-1.500063,
ELLEN TERRY BUILDING JORDAN WELL CV1 5FB,CV1 5FB,Commercial - Education - Universities,,LLPG-BLPU-20200709,52.405314,-1.500063,
236  NHS SURE START CENTRE JARDINE CRESCENT CV4 9PL,CV4 9PL,Commercial - Education - Nursery/creche,,LLPG-BLPU-20200709,52.407214,-1.579274,
30 NICKSON ROAD CV4 9RU,CV4 9RU,Commercial - Education - Other educational establishments,,LLPG-BLPU-20200709,52.401001,-1.58414,
90 BINLEY ROAD CV3 1FQ,CV3 1FQ,Commercial - Education - Secondary School,,LLPG-BLPU-20200709,52.405575,-1.479216,
30 STOKE GREEN CV3 1AA,CV3 1AA,Commercial - Education - Nursery/creche,,LLPG-BLPU-20200709,52.405331,-1.483144,
MIDLAND GROUP TRAINING SERVICES LTD GULSON ROAD CV1 2JG,CV1 2JG,Commercial - Education - Other educational establishments,,LLPG-BLPU-20200709,52.405129,-1.49667,
SMALL FRIES DAY NURSERY HERTFORD PLACE CV1 3JZ,CV1 3JZ,Commercial - Education - Nursery/creche,,LLPG-BLPU-20200709,52.405196,-1.519174,
41 JOBS LANE CV4 9DZ,CV4 9DZ,Commercial - Education - Nursery/creche,,LLPG-BLPU-20200709,52.404243,-1.573056,
INSTITUTE FOR CREATIVE ENTERPRISE PARKSIDE CV1 2QR,CV1 2QR,Commercial - Education - Universities,,LLPG-BLPU-20200709,52.404015,-1.505458,
TILE HILL WOOD SCHOOL AND LANGUAGE COLLEGE NUTBROOK AVENUE CV4 9PW,CV4 9PW,Commercial - Education - Secondary School,,LLPG-BLPU-20200709,52.403714,-1.589411,
347 TILE HILL LANE CV4 9DU,CV4 9DU,Commercial - Education - Nursery/creche,,LLPG-BLPU-20200709,52.403668,-1.563345,
365 BELL GREEN ROAD CV6 7HD,CV6 7HD,Commercial - Education - Nursery/creche,,LLPG-BLPU-20200709,52.435154,-1.477647,
1-3 BEDLAM LANE CV6 6AR,CV6 6AR,Commercial - Education - Nursery/creche,,LLPG-BLPU-20200709,52.442555,-1.496655,
18 AVON STREET CV2 3GL,CV2 3GL,Commercial - Education - Nursery/creche,,LLPG-BLPU-20200709,52.417169,-1.476448,
12 STONEY ROAD CV1 2NP,CV1 2NP,Commercial - Education - Nursery/creche,,LLPG-BLPU-20200709,52.401723,-1.509775,
HEREWARD COLLEGE OF FURTHER EDUCATION BRAMSTON CRESCENT CV4 9SW,CV4 9SW,Commercial - Education - Colleges,,LLPG-BLPU-20200709,52.40158,-1.577711,
2 MAYFIELD ROAD CV5 6PS,CV5 6PS,Commercial - Education - Nursery/creche,,LLPG-BLPU-20200709,52.399794,-1.526302,
26-30  BUSY BEE DAY NURSERY NICKSON ROAD CV4 9RU,CV4 9RU,Commercial - Education - Nursery/creche,,LLPG-BLPU-20200709,52.401001,-1.58414,
85  THE SCHOOL HOUSE MOOR STREET CV5 6EY,CV5 6EY,Commercial - Education - Nursery/creche,,LLPG-BLPU-20200709,52.400867,-1.533771,
BLUE COAT CHURCH OF ENGLAND SCHOOL TERRY ROAD CV1 2BA,CV1 2BA,Commercial - Education - Secondary School,,LLPG-BLPU-20200709,52.401354,-1.492941,
15 LESINGHAM DRIVE CV4 9JT,CV4 9JT,Commercial - Education - Nursery/creche,,LLPG-BLPU-20200709,52.40009,-1.583516,
110A BRANDON ROAD CV3 2JF,CV3 2JF,Commercial - Education - Nursery/creche,,LLPG-BLPU-20200709,52.399845,-1.443098,
68 EARLSDON AVENUE SOUTH CV5 6DT,CV5 6DT,Commercial - Education - Nursery/creche,,LLPG-BLPU-20200709,52.397579,-1.527516,
51 THE BARLEY LEA CV3 1DX,CV3 1DX,Commercial - Education - Nursery/creche,,LLPG-BLPU-20200709,52.397469,-1.471772,
161 WARWICK ROAD CV3 6AU,CV3 6AU,Commercial - Education - Nursery/creche,,LLPG-BLPU-20200709,52.397757,-1.516168,
20 ROCHESTER ROAD CV5 6AD,CV5 6AD,Commercial - Education - Nursery/creche,,LLPG-BLPU-20200709,52.397091,-1.536148,
64  PATTISON COLLEGE PREP SCHOOL BINLEY ROAD CV3 1FQ,CV3 1FQ,Commercial - Education - Colleges,,LLPG-BLPU-20200709,52.405575,-1.479216,
JACK AND JILL PLAYGROUP  LAMBRICK WOOD BAPTIST CHURCH FASEMAN AVENUE CV4 9RD,CV4 9RD,Commercial - Education - Nursery/creche,,LLPG-BLPU-20200709,52.408849,-1.576495,
JENNER 8  FRANK WALSH HOUSE JENNER STREET CV1 4GF,CV1 4GF,Commercial - Education - Special needs establishments,,LLPG-BLPU-20200709,52.416027,-1.503559,
ERNESFORD GRANGE SCHOOL AND COMMUNITY COLLEGE PRINCETHORPE WAY CV3 2QD,CV3 2QD,Commercial - Education - Secondary School,,LLPG-BLPU-20200709,52.395557,-1.458671,
EDEN GIRLS SCHOOL COVENTRY STONEY STANTON ROAD CV1 4FS,CV1 4FS,Commercial - Education - Secondary School,,LLPG-BLPU-20200709,52.413401,-1.508005,
20  ALISON GINGELL BUILDING WHITEFRIARS STREET CV1 2DS,CV1 2DS,Commercial - Education - Universities,,LLPG-BLPU-20200709,52.40621,-1.503822,
SIDNEY STRINGER ACADEMY PRIMROSE HILL STREET CV1 5LY,CV1 5LY,Commercial - Education - Secondary School,,LLPG-BLPU-20200709,52.413128,-1.502745,
ALLESLEY PLAYGROUP 103A BIRMINGHAM ROAD CV5 9GR,CV5 9GR,Commercial - Education - Nursery/creche,,LLPG-BLPU-20200709,52.423233,-1.564466,
BUSY BEES NURSERY  LEIGH COURT TORRINGTON AVENUE CV4 9XZ,CV4 9XZ,Commercial - Education - Nursery/creche,,LLPG-BLPU-20200709,52.397878,-1.573146,
EARLY YEARS CHILD CARE CENTRE  MOAT HOUSE COMMUNITY PRIMARY SCHOOL DEEDMORE ROAD CV2 1EQ,CV2 1EQ,Commercial - Education - Nursery/creche,,LLPG-BLPU-20200709,52.438195,-1.45809,
THE LITTLE SWANSWELL NURSERY  CORNERSTONE FAMILY CENTRE HOWARD STREET CV1 4GE,CV1 4GE,Commercial - Education - Nursery/creche,,LLPG-BLPU-20200709,52.415554,-1.506505,
WAKEFIELD CROSSING COTTAGE YARMOUTH GREEN CV4 8BN,CV4 8BN,Commercial - Education - Nursery/creche,,LLPG-BLPU-20200709,52.395272,-1.584199,
MOSAIC NURSERY 314  CHARTER PRIMARY SCHOOL MITCHELL AVENUE CV4 8DW,CV4 8DW,Commercial - Education - Nursery/creche,,LLPG-BLPU-20200709,52.39362,-1.569176,
18 GEORGE ELIOT KINDERGARTEN PAPENHAM GREEN CV4 8BQ,CV4 8BQ,Commercial - Education - Nursery/creche,,LLPG-BLPU-20200709,52.39543,-1.572823,
STOKE PARK SCHOOL AND COMMUNITY COLLEGE DANE ROAD CV2 4JW,CV2 4JW,Commercial - Education - Secondary School,,LLPG-BLPU-20200709,52.413784,-1.475312,
PRESIDENT KENNEDY SCHOOL AND COMMUNITY COLLEGE ROOKERY LANE CV6 4GL,CV6 4GL,Commercial - Education - Secondary School,,LLPG-BLPU-20200709,52.449072,-1.520403,
CARDINAL WISEMAN CATHOLIC SCHOOL POTTERS GREEN ROAD CV2 2AJ,CV2 2AJ,Commercial - Education - Secondary School,,LLPG-BLPU-20200709,52.435859,-1.452485,
200 ROSEBERRY AVENUE CV2 1NE,CV2 1NE,Commercial - Education - Nursery/creche,,LLPG-BLPU-20200709,52.436616,-1.470628,
5  WYKEN YOUNG PEOPLES CENTRE AXHOLME ROAD CV2 5BD,CV2 5BD,Commercial - Education - Other educational establishments,,LLPG-BLPU-20200709,52.414683,-1.45363,
COVENTRY UNIVERSITY NURSERY ALMA STREET CV1 5QA,CV1 5QA,Commercial - Education - Nursery/creche,,LLPG-BLPU-20200709,52.409648,-1.50022,
WMG ACADEMY MITCHELL AVENUE CV4 8DY,CV4 8DY,Commercial - Education - Colleges,,LLPG-BLPU-20200709,52.390521,-1.569926,
THE WESTWOOD ACADEMY MITCHELL AVENUE CV4 8DY,CV4 8DY,Commercial - Education - Secondary School,,LLPG-BLPU-20200709,52.390521,-1.569926,
ROOMS 3 TO 5 INSTITUTE FOR CREATIVE ENTERPRISE PARKSIDE CV1 2QR,CV1 2QR,Commercial - Education - Universities,,LLPG-BLPU-20200709,52.404015,-1.505458,
ROOM 17 INSTITUTE FOR CREATIVE ENTERPRISE PARKSIDE CV1 2QR,CV1 2QR,Commercial - Education - Universities,,LLPG-BLPU-20200709,52.404015,-1.505458,
ROOM 16 INSTITUTE FOR CREATIVE ENTERPRISE PARKSIDE CV1 2QR,CV1 2QR,Commercial - Education - Universities,,LLPG-BLPU-20200709,52.404015,-1.505458,
ROOM 15 INSTITUTE FOR CREATIVE ENTERPRISE PARKSIDE CV1 2QR,CV1 2QR,Commercial - Education - Universities,,LLPG-BLPU-20200709,52.404015,-1.505458,
ROOM 14 INSTITUTE FOR CREATIVE ENTERPRISE PARKSIDE CV1 2QR,CV1 2QR,Commercial - Education - Universities,,LLPG-BLPU-20200709,52.404015,-1.505458,
ROOM 13 INSTITUTE FOR CREATIVE ENTERPRISE PARKSIDE CV1 2QR,CV1 2QR,Commercial - Education - Universities,,LLPG-BLPU-20200709,52.404015,-1.505458,
ROOM 10 INSTITUTE FOR CREATIVE ENTERPRISE PARKSIDE CV1 2QR,CV1 2QR,Commercial - Education - Universities,,LLPG-BLPU-20200709,52.404015,-1.505458,
ROOM 9 INSTITUTE FOR CREATIVE ENTERPRISE PARKSIDE CV1 2QR,CV1 2QR,Commercial - Education - Universities,,LLPG-BLPU-20200709,52.404015,-1.505458,
ROOM 8 INSTITUTE FOR CREATIVE ENTERPRISE PARKSIDE CV1 2QR,CV1 2QR,Commercial - Education - Universities,,LLPG-BLPU-20200709,52.404015,-1.505458,
ROOM 7 INSTITUTE FOR CREATIVE ENTERPRISE PARKSIDE CV1 2QR,CV1 2QR,Commercial - Education - Universities,,LLPG-BLPU-20200709,52.404015,-1.505458,
ROOM 6 INSTITUTE FOR CREATIVE ENTERPRISE PARKSIDE CV1 2QR,CV1 2QR,Commercial - Education - Universities,,LLPG-BLPU-20200709,52.404015,-1.505458,
ROOM 2 INSTITUTE FOR CREATIVE ENTERPRISE PARKSIDE CV1 2QR,CV1 2QR,Commercial - Education - Universities,,LLPG-BLPU-20200709,52.404015,-1.505458,
ROOM 1 INSTITUTE FOR CREATIVE ENTERPRISE PARKSIDE CV1 2QR,CV1 2QR,Commercial - Education - Universities,,LLPG-BLPU-20200709,52.404015,-1.505458,
WORKSHOP INSTITUTE FOR CREATIVE ENTERPRISE PARKSIDE CV1 2QR,CV1 2QR,Commercial - Education - Universities,,LLPG-BLPU-20200709,52.404015,-1.505458,
PERFORMANCE STUDIO INSTITUTE FOR CREATIVE ENTERPRISE PARKSIDE CV1 2QR,CV1 2QR,Commercial - Education - Universities,,LLPG-BLPU-20200709,52.404015,-1.505458,
STUDIO INSTITUTE FOR CREATIVE ENTERPRISE PARKSIDE CV1 2QR,CV1 2QR,Commercial - Education - Universities,,LLPG-BLPU-20200709,52.404015,-1.505458,
SCREENING ROOM INSTITUTE FOR CREATIVE ENTERPRISE PARKSIDE CV1 2QR,CV1 2QR,Commercial - Education - Universities,,LLPG-BLPU-20200709,52.404015,-1.505458,
MEDIA AND COMMUNICATIONS STUDIO INSTITUTE FOR CREATIVE ENTERPRISE PARKSIDE CV1 2QR,CV1 2QR,Commercial - Education - Universities,,LLPG-BLPU-20200709,52.404015,-1.505458,
DIGITAL ART STUDIO INSTITUTE FOR CREATIVE ENTERPRISE PARKSIDE CV1 2QR,CV1 2QR,Commercial - Education - Universities,,LLPG-BLPU-20200709,52.404015,-1.505458,
CHANGING ROOM INSTITUTE FOR CREATIVE ENTERPRISE PARKSIDE CV1 2QR,CV1 2QR,Commercial - Education - Universities,,LLPG-BLPU-20200709,52.404015,-1.505458,
FELDON HALL KIRBY CORNER ROAD CV4 7AJ,CV4 7AJ,Commercial - Education - Universities,,LLPG-BLPU-20200709,52.373502,-1.553144,
WHITLEY ACADEMY ABBEY ROAD CV3 4BD,CV3 4BD,Commercial - Education - Secondary School,,LLPG-BLPU-20200709,52.386332,-1.486569,
UNIVERSITY OF WARWICK SCIENCE PARK MILBURN HILL ROAD CV4 7HS,CV4 7HS,Commercial - Education - Universities,,LLPG-BLPU-20200709,52.385783,-1.56047,
WESTWOOD MUSIC BLOCK UNIVERSITY OF WARWICK KIRBY CORNER ROAD CV4 7AL,CV4 7AL,Commercial - Education - Universities,,LLPG-BLPU-20200709,52.38581,-1.564814,
WESTWOOD TEACHING CENTRE UNIVERSITY OF WARWICK KIRBY CORNER ROAD CV4 7AL,CV4 7AL,Commercial - Education - Universities,,LLPG-BLPU-20200709,52.38581,-1.564814,
AVON BUILDING UNIVERSITY OF WARWICK KIRBY CORNER ROAD CV4 7AL,CV4 7AL,Commercial - Education - Universities,,LLPG-BLPU-20200709,52.38581,-1.564814,
UNIVERSITY HOUSE UNIVERSITY OF WARWICK KIRBY CORNER ROAD CV4 8JY,CV4 8JY,Commercial - Education - Universities,,LLPG-BLPU-20200709,52.385576,-1.564787,
WESTWOOD DAY NURSERY WESTWOOD WAY CV4 8HS,CV4 8HS,Commercial - Education - Nursery/creche,,LLPG-BLPU-20200709,52.386953,-1.575725,
3-15 BARRAS LANE CV1 3BU,CV1 3BU,Commercial - Education - Nursery/creche,,LLPG-BLPU-20200709,52.409567,-1.521978,
THE OLD FIRE STATION CHETTON AVENUE CV6 3LA,CV6 3LA,Commercial - Education - Nursery/creche,,LLPG-BLPU-20200709,52.422101,-1.513849,
50-52  CHILDRENS CENTRE HEN LANE CV6 4LB,CV6 4LB,Commercial - Education - Nursery/creche,,LLPG-BLPU-20200709,52.446781,-1.507436,
LITTLE ANGELS DAY NURSERY COVENTRY MUSLIM COMMUNITY CENTRE RED LANE CV6 5EE,CV6 5EE,Commercial - Education - Nursery/creche,,LLPG-BLPU-20200709,52.420206,-1.494807,
MUSIC BLOCK PRESIDENT KENNEDY SCHOOL AND COMMUNITY COLLEGE ROOKERY LANE CV6 4GL,CV6 4GL,Commercial - Education - Secondary School,,LLPG-BLPU-20200709,52.449072,-1.520403,
CALUDON CASTLE BUSINESS ENTERPRISE SCHOOL AXHOLME ROAD CV2 5BD,CV2 5BD,Commercial - Education - Secondary School,,LLPG-BLPU-20200709,52.414683,-1.45363,
ALL SORTS EARLY YEARS DAY CARE  ALL SOULS CATHOLIC PRIMARY SCHOOL ABERCORN ROAD CV5 8ED,CV5 8ED,Commercial - Education - Nursery/creche,,LLPG-BLPU-20200709,52.406089,-1.538097,
CIRCLE OF FRIENDS DAY NURSERY LADY LANE CV6 6AZ,CV6 6AZ,Commercial - Education - Nursery/creche,,LLPG-BLPU-20200709,52.450587,-1.487014,
TILE HILL RIDING AND DRIVING SCHOOL WESTWOOD HEATH ROAD CV4 8GN,CV4 8GN,Commercial - Education - Other educational establishments,,LLPG-BLPU-20200709,52.384213,-1.573102,
50  CITY COLLEGE SWANSWELL STREET CV1 5DG,CV1 5DG,Commercial - Education - Colleges,,LLPG-BLPU-20200709,52.414005,-1.503743,
COMPUTER SCIENCE BUILDING UNIVERSITY OF WARWICK GIBBET HILL ROAD CV4 7AL,CV4 7AL,Commercial - Education - Universities,,LLPG-BLPU-20200709,52.38581,-1.564814,
INTERNATIONAL MANUFACTURING CENTRE UNIVERSITY OF WARWICK GIBBET HILL ROAD CV4 7AL,CV4 7AL,Commercial - Education - Universities,,LLPG-BLPU-20200709,52.38581,-1.564814,
MIDDLE RIDE CHILDRENS CENTRE MIDDLE RIDE CV3 3GL,CV3 3GL,Commercial - Education - Nursery/creche,,LLPG-BLPU-20200709,52.38481,-1.459699,
NURSERY HERALD AVENUE CV5 6UB,CV5 6UB,Commercial - Education - Nursery/creche,,LLPG-BLPU-20200709,52.403256,-1.55239,
NURSERY UNIVERSITY OF WARWICK KIRBY CORNER ROAD CV4 8EE,CV4 8EE,Commercial - Education - Nursery/creche,,LLPG-BLPU-20200709,52.395197,-1.573251,
WESTWOOD SOCIAL BUILDING UNIVERSITY OF WARWICK KIRBY CORNER ROAD CV4 8EE,CV4 8EE,Commercial - Education - Universities,,LLPG-BLPU-20200709,52.395197,-1.573251,
INTERNATIONAL AUTOMOTIVE RESEARCH CENTRE UNIVERSITY OF WARWICK GIBBET HILL ROAD CV4 7AL,CV4 7AL,Commercial - Education - Universities,,LLPG-BLPU-20200709,52.38581,-1.564814,
145-147  DAY NURSERY SUTTON AVENUE CV5 7ER,CV5 7ER,Commercial - Education - Nursery/creche,,LLPG-BLPU-20200709,52.415484,-1.59459,
PHYSICS BUILDING UNIVERSITY OF WARWICK GIBBET HILL ROAD CV4 7AL,CV4 7AL,Commercial - Education - Universities,,LLPG-BLPU-20200709,52.38581,-1.564814,
UNIVERSITY OF WARWICK GIBBET HILL ROAD CV4 7AL,CV4 7AL,Commercial - Education - Universities,,LLPG-BLPU-20200709,52.38581,-1.564814,
ARTHUR VICK WARDENS RESIDENCE GIBBET HILL ROAD CV4 7ES,CV4 7ES,Commercial - Education - Universities,,LLPG-BLPU-20200709,52.378132,-1.557559,
I CAN DAY NURSERY KINGSLAND AVENUE CV5 8EB,CV5 8EB,Commercial - Education - Nursery/creche,,LLPG-BLPU-20200709,52.405791,-1.537762,
HOPE NURSERY HOPE CENTRE VAUXHALL STREET CV1 5LB,CV1 5LB,Commercial - Education - Nursery/creche,,LLPG-BLPU-20200709,52.411612,-1.494832,
FINHAM PARK SCHOOL GREEN LANE CV3 6EA,CV3 6EA,Commercial - Education - Secondary School,,LLPG-BLPU-20200709,52.382242,-1.527591,
BISHOP ULLATHORNE CATHOLIC SCHOOL LEASOWES AVENUE CV3 6BH,CV3 6BH,Commercial - Education - Secondary School,,LLPG-BLPU-20200709,52.380206,-1.535737,
STUDENT UNION NORTH UNIVERSITY OF WARWICK GIBBET HILL ROAD CV4 7AL,CV4 7AL,Commercial - Education - Universities,,LLPG-BLPU-20200709,52.38581,-1.564814,
192 FENSIDE AVENUE CV3 5NJ,CV3 5NJ,Commercial - Education - Nursery/creche,,LLPG-BLPU-20200709,52.378939,-1.504709,
ROOTES SOCIAL BUILDING GIBBET HILL ROAD CV4 7ES,CV4 7ES,Commercial - Education - Universities,,LLPG-BLPU-20200709,52.378132,-1.557559,
UNIT 7A BINLEY BUSINESS PARK HARRY WESTON ROAD CV3 2SN,CV3 2SN,Commercial - Education - Nursery/creche,,LLPG-BLPU-20200709,52.403151,-1.444468,
134 DEEDMORE ROAD CV2 2AA,CV2 2AA,Commercial - Education - Nursery/creche,,LLPG-BLPU-20200709,52.440146,-1.458162,
REAR OF BIOLOGICAL SCIENCES BUILDING UNIVERSITY OF WARWICK GIBBET HILL ROAD CV4 7AL,CV4 7AL,Commercial - Education - Universities,,LLPG-BLPU-20200709,52.38581,-1.564814,
BIOMEDICAL RESEARCH BUILDING UNIVERSITY OF WARWICK GIBBET HILL ROAD CV4 7AL,CV4 7AL,Commercial - Education - Universities,,LLPG-BLPU-20200709,52.38581,-1.564814,
MEDICAL SCHOOL UNIVERSITY OF WARWICK GIBBET HILL ROAD CV4 7AL,CV4 7AL,Commercial - Education - Universities,,LLPG-BLPU-20200709,52.38581,-1.564814,
MEDICAL TEACHING CENTRE UNIVERSITY OF WARWICK GIBBET HILL ROAD CV4 7AL,CV4 7AL,Commercial - Education - Universities,,LLPG-BLPU-20200709,52.38581,-1.564814,
PARK ROAD DENTAL CARE  PARK HOUSE STATION SQUARE CV1 2FL,CV1 2FL,Commercial - Medical - Dentist,,LLPG-BLPU-20200709,52.401409,-1.512459,
THE SPENCER ROAD DENTAL SURGERY 8 SPENCER ROAD CV5 6PA,CV5 6PA,Commercial - Medical - Dentist,,LLPG-BLPU-20200709,52.399265,-1.519899,
549A FOLESHILL ROAD CV6 5AU,CV6 5AU,Commercial - Medical - Dentist,,LLPG-BLPU-20200709,52.428865,-1.499341,
2  CYGNET HOSPITAL LANSDOWNE STREET CV2 4BF,CV2 4BF,Commercial - Medical - Hospital / Hospice,,LLPG-BLPU-20200709,52.409225,-1.491851,
39 BENNETTS ROAD NORTH CV7 8JX,CV7 8JX,Commercial - Medical - Professional medical services,,LLPG-BLPU-20200709,52.460903,-1.53644,
108 WINDMILL ROAD CV6 7BG,CV6 7BG,Commercial - Medical - Dentist,,LLPG-BLPU-20200709,52.444274,-1.482586,
75-77 WHEELWRIGHT LANE CV6 4HN,CV6 4HN,Commercial - Medical - Dentist,,LLPG-BLPU-20200709,52.448874,-1.511371,
4 ROTHERHAM ROAD CV6 4FE,CV6 4FE,Commercial - Medical - Dentist,,LLPG-BLPU-20200709,52.442926,-1.512202,
DENTAL SURGERY ROSEBERRY AVENUE CV2 1ND,CV2 1ND,Commercial - Medical - Dentist,,LLPG-BLPU-20200709,52.435952,-1.47093,
320 BELL GREEN ROAD CV6 7HB,CV6 7HB,Commercial - Medical - Dentist,,LLPG-BLPU-20200709,52.435924,-1.474711,
50 JUBILEE CRESCENT CV6 3ET,CV6 3ET,Commercial - Medical - Professional medical services,,LLPG-BLPU-20200709,52.43129,-1.516396,
53 BROAD PARK ROAD CV2 1DB,CV2 1DB,Commercial - Medical - Professional medical services,,LLPG-BLPU-20200709,52.432261,-1.457972,
54-58 JUBILEE CRESCENT CV6 3ET,CV6 3ET,Commercial - Medical - Professional medical services,,LLPG-BLPU-20200709,52.43129,-1.516396,
OVER 547-549 FOLESHILL ROAD CV6 5AU,CV6 5AU,Commercial - Medical - Dentist,,LLPG-BLPU-20200709,52.428865,-1.499341,
197 BROAD STREET CV6 5BN,CV6 5BN,Commercial - Medical - Dentist,,LLPG-BLPU-20200709,52.42723,-1.495271,
41 TORCROSS AVENUE CV2 3NE,CV2 3NE,Commercial - Medical - Dentist,,LLPG-BLPU-20200709,52.419722,-1.47033,
107 MOSELEY AVENUE CV6 1HR,CV6 1HR,Commercial - Medical - Dentist,,LLPG-BLPU-20200709,52.41771,-1.526292,
177 LONGFORD ROAD CV6 6EE,CV6 6EE,Commercial - Medical - Dentist,,LLPG-BLPU-20200709,52.449773,-1.486221,
COUNDON DENTAL CLINIC BARKER BUTTS LANE CV6 1DU,CV6 1DU,Commercial - Medical - Dentist,,LLPG-BLPU-20200709,52.416109,-1.525598,
1 LIGHT LANE CV1 4BQ,CV1 4BQ,Commercial - Medical - Dentist,,LLPG-BLPU-20200709,52.414814,-1.514408,
COVENTRY AND WARWICKSHIRE HOSPITAL STONEY STANTON ROAD CV1 4FH,CV1 4FH,Commercial - Medical - Hospital / Hospice,,LLPG-BLPU-20200709,52.41408,-1.506609,
122 WINSFORD AVENUE CV5 9JB,CV5 9JB,Commercial - Medical - Dentist,,LLPG-BLPU-20200709,52.413778,-1.557526,
21 BERRY STREET CV1 5JT,CV1 5JT,Commercial - Medical - Dentist,,LLPG-BLPU-20200709,52.413042,-1.494889,
2-4 LONGFELLOW ROAD CV2 5HB,CV2 5HB,Commercial - Medical - Dentist,,LLPG-BLPU-20200709,52.410932,-1.470847,
296 WALSGRAVE ROAD CV2 4BL,CV2 4BL,Commercial - Medical - Dentist,,LLPG-BLPU-20200709,52.411114,-1.473506,
117 HOLYHEAD ROAD CV1 3AD,CV1 3AD,Commercial - Medical - Dentist,,LLPG-BLPU-20200709,52.410802,-1.523088,
90 WALSGRAVE ROAD CV2 4ED,CV2 4ED,Commercial - Medical - Dentist,,LLPG-BLPU-20200709,52.410554,-1.483068,
88 WALSGRAVE ROAD CV2 4ED,CV2 4ED,Commercial - Medical - Dentist,,LLPG-BLPU-20200709,52.410554,-1.483068,
163 CORPORATION STREET CV1 1GU,CV1 1GU,Commercial - Medical - Dentist,,LLPG-BLPU-20200709,52.410499,-1.512712,
61 WALSGRAVE ROAD CV2 4HF,CV2 4HF,Commercial - Medical - Dentist,,LLPG-BLPU-20200709,52.409679,-1.488488,
GOSFORD LODGE DENTAL SURGERY BINLEY ROAD CV3 1JD,CV3 1JD,Commercial - Medical - Dentist,,LLPG-BLPU-20200709,52.40788,-1.492434,
2 SIR THOMAS WHITES ROAD CV5 8DQ,CV5 8DQ,Commercial - Medical - Dentist,,LLPG-BLPU-20200709,52.407312,-1.535776,
276 BROAD LANE CV5 7AT,CV5 7AT,Commercial - Medical - Dentist,,LLPG-BLPU-20200709,52.408503,-1.567781,
106 MARLBOROUGH ROAD CV2 4ER,CV2 4ER,Commercial - Medical - Dentist,,LLPG-BLPU-20200709,52.40745,-1.484427,
2 KINGSTON ROAD CV5 6LN,CV5 6LN,Commercial - Medical - Dentist,,LLPG-BLPU-20200709,52.404363,-1.533544,
6 TILE HILL LANE CV4 9DG,CV4 9DG,Commercial - Medical - Dentist,,LLPG-BLPU-20200709,52.404172,-1.549126,
13 PARK ROAD CV1 2LE,CV1 2LE,Commercial - Medical - Dentist,,LLPG-BLPU-20200709,52.402656,-1.5098,
FIRST FLOOR AND SECOND FLOOR 10 PARK ROAD CV1 2LD,CV1 2LD,Commercial - Medical - Professional medical services,,LLPG-BLPU-20200709,52.402342,-1.509518,
5 STATION AVENUE CV4 9HR,CV4 9HR,Commercial - Medical - Dentist,,LLPG-BLPU-20200709,52.398258,-1.594929,
110 BRANDON ROAD CV3 2JF,CV3 2JF,Commercial - Medical - Professional medical services,,LLPG-BLPU-20200709,52.399845,-1.443098,
28B EARLSDON STREET CV5 6EJ,CV5 6EJ,Commercial - Medical - Professional medical services,,LLPG-BLPU-20200709,52.398679,-1.533045,
GROUND FLOOR 75 WHEELWRIGHT LANE CV6 4HN,CV6 4HN,Commercial - Medical - Dentist,,LLPG-BLPU-20200709,52.448874,-1.511371,
CALUDON CENTRE CLIFFORD BRIDGE ROAD CV2 2TE,CV2 2TE,Commercial - Medical - Hospital / Hospice,,LLPG-BLPU-20200709,52.42244,-1.445534,
10 PARK ROAD CV1 2LD,CV1 2LD,Commercial - Medical - Professional medical services,,LLPG-BLPU-20200709,52.402342,-1.509518,
76 QUINTON ROAD CV3 5FD,CV3 5FD,Commercial - Medical - Dentist,,LLPG-BLPU-20200709,52.395682,-1.508113,
5 MAYORS CROFT CV4 8FF,CV4 8FF,Commercial - Medical - Dentist,,LLPG-BLPU-20200709,52.393796,-1.563119,
279 MITCHELL AVENUE CV4 8DU,CV4 8DU,Commercial - Medical - Dentist,,LLPG-BLPU-20200709,52.393614,-1.570057,
282 DAVENTRY ROAD CV3 5HL,CV3 5HL,Commercial - Medical - Dentist,,LLPG-BLPU-20200709,52.392806,-1.497368,
2A HAWKESBURY LODGE GRANGE ROAD CV6 6DT,CV6 6DT,Commercial - Medical - Hospital / Hospice,,LLPG-BLPU-20200709,52.449298,-1.480114,
SWANSWELL POINT COVENTRY AND WARWICKSHIRE HOSPITAL STONEY STANTON ROAD CV1 4FH,CV1 4FH,Commercial - Medical - Hospital / Hospice,,LLPG-BLPU-20200709,52.41408,-1.506609,
COVENTRY MYTON HOSPICE CLIFFORD BRIDGE ROAD CV2 2HJ,CV2 2HJ,Commercial - Medical - Hospital / Hospice,,LLPG-BLPU-20200709,52.420653,-1.444086,
GROUND FLOOR UNIVERSITY HOSPITAL CLIFFORD BRIDGE ROAD CV2 1AA,CV2 1AA,Commercial - Medical - Hospital / Hospice,,LLPG-BLPU-20200709,52.447369,-1.445427,
WARD KITCHENS ARDEN CANCER CENTRE UNIVERSITY HOSPITAL CLIFFORD BRIDGE ROAD CV2 1AA,CV2 1AA,Commercial - Medical - Professional medical services,,LLPG-BLPU-20200709,52.447369,-1.445427,
WARD KITCHENS WOMEN AND CHILDRENS HOSPITAL UNIVERSITY HOSPITAL CLIFFORD BRIDGE ROAD CV2 1AA,CV2 1AA,Commercial - Medical - Professional medical services,,LLPG-BLPU-20200709,52.447369,-1.445427,
SECOND FLOOR UNIVERSITY HOSPITAL CLIFFORD BRIDGE ROAD CV2 1AA,CV2 1AA,Commercial - Medical - Hospital / Hospice,,LLPG-BLPU-20200709,52.447369,-1.445427,
HOSPITAL VOLUNTARY SERVICES FOURTH FLOOR ROTUNDA UNIVERSITY HOSPITAL CLIFFORD BRIDGE ROAD CV2 1AA,CV2 1AA,Commercial - Medical - Hospital / Hospice,,LLPG-BLPU-20200709,52.447369,-1.445427,
102 REMEMBRANCE ROAD CV3 3DP,CV3 3DP,Commercial - Medical - Professional medical services,,LLPG-BLPU-20200709,52.388988,-1.463131,
DENTAL SURGERY LITTLE CEDARS MEADFOOT ROAD CV3 3DW,CV3 3DW,Commercial - Medical - Dentist,,LLPG-BLPU-20200709,52.388015,-1.456977,
DENTAL SURGERY 92 LEAMINGTON ROAD CV3 6GS,CV3 6GS,Commercial - Medical - Dentist,,LLPG-BLPU-20200709,52.387492,-1.516471,
JUBILEE HEALTH CENTRE JUBILEE CRESCENT CV6 3FA,CV6 3FA,Commercial - Medical - Dentist,,LLPG-BLPU-20200709,52.431352,-1.517874,
FIFTH FLOOR UNIVERSITY HOSPITAL CLIFFORD BRIDGE ROAD CV2 1AA,CV2 1AA,Commercial - Medical - Hospital / Hospice,,LLPG-BLPU-20200709,52.447369,-1.445427,
FOURTH FLOOR UNIVERSITY HOSPITAL CLIFFORD BRIDGE ROAD CV2 1AA,CV2 1AA,Commercial - Medical - Hospital / Hospice,,LLPG-BLPU-20200709,52.447369,-1.445427,
THIRD FLOOR UNIVERSITY HOSPITAL CLIFFORD BRIDGE ROAD CV2 1AA,CV2 1AA,Commercial - Medical - Hospital / Hospice,,LLPG-BLPU-20200709,52.447369,-1.445427,
FIRST FLOOR UNIVERSITY HOSPITAL CLIFFORD BRIDGE ROAD CV2 1AA,CV2 1AA,Commercial - Medical - Hospital / Hospice,,LLPG-BLPU-20200709,52.447369,-1.445427,
WOMEN AND CHILDRENS HOSPITAL UNIVERSITY HOSPITAL CLIFFORD BRIDGE ROAD CV2 1AA,CV2 1AA,Commercial - Medical - Hospital / Hospice,,LLPG-BLPU-20200709,52.447369,-1.445427,
EAST WING UNIVERSITY HOSPITAL CLIFFORD BRIDGE ROAD CV2 1AA,CV2 1AA,Commercial - Medical - Hospital / Hospice,,LLPG-BLPU-20200709,52.447369,-1.445427,
THE MALL UNIVERSITY HOSPITAL CLIFFORD BRIDGE ROAD CV2 1AA,CV2 1AA,Commercial - Medical - Hospital / Hospice,,LLPG-BLPU-20200709,52.447369,-1.445427,
CENTRAL WING UNIVERSITY HOSPITAL CLIFFORD BRIDGE ROAD CV2 1AA,CV2 1AA,Commercial - Medical - Hospital / Hospice,,LLPG-BLPU-20200709,52.447369,-1.445427,
WEST WING UNIVERSITY HOSPITAL CLIFFORD BRIDGE ROAD CV2 1AA,CV2 1AA,Commercial - Medical - Hospital / Hospice,,LLPG-BLPU-20200709,52.447369,-1.445427,
BUSY BEES NURSERY UNIVERSITY HOSPITAL CLIFFORD BRIDGE ROAD CV2 2DX,CV2 2DX,Commercial - Medical - Hospital / Hospice,,LLPG-BLPU-20200709,52.421211,-1.438403,
CLINICAL SCIENCES BUILDING UNIVERSITY HOSPITAL CLIFFORD BRIDGE ROAD CV2 1AA,CV2 1AA,Commercial - Medical - Hospital / Hospice,,LLPG-BLPU-20200709,52.447369,-1.445427,
HELICOPTER PAD UNIVERSITY HOSPITAL CLIFFORD BRIDGE ROAD CV2 1AA,CV2 1AA,Commercial - Medical - Hospital / Hospice,,LLPG-BLPU-20200709,52.447369,-1.445427,
TECHNOLOGY CENTRE UNIVERSITY HOSPITAL CLIFFORD BRIDGE ROAD CV2 1AA,CV2 1AA,Commercial - Medical - Hospital / Hospice,,LLPG-BLPU-20200709,52.447369,-1.445427,
EMERGENCY DEPARTMENT ENTRANCE UNIVERSITY HOSPITAL CLIFFORD BRIDGE ROAD CV2 1AA,CV2 1AA,Commercial - Medical - Hospital / Hospice,,LLPG-BLPU-20200709,52.447369,-1.445427,
ARDEN CANCER CENTRE UNIVERSITY HOSPITAL CLIFFORD BRIDGE ROAD CV2 1AA,CV2 1AA,Commercial - Medical - Hospital / Hospice,,LLPG-BLPU-20200709,52.447369,-1.445427,
REPRODUCTIVE MEDICINE UNIVERSITY HOSPITAL CLIFFORD BRIDGE ROAD CV2 1AA,CV2 1AA,Commercial - Medical - Hospital / Hospice,,LLPG-BLPU-20200709,52.447369,-1.445427,
STERILE SERVICES UNIVERSITY HOSPITAL CLIFFORD BRIDGE ROAD CV2 1AA,CV2 1AA,Commercial - Medical - Hospital / Hospice,,LLPG-BLPU-20200709,52.447369,-1.445427,
UNIVERSITY HOSPITAL CLIFFORD BRIDGE ROAD CV2 2DX,CV2 2DX,Commercial - Medical - Hospital / Hospice,,LLPG-BLPU-20200709,52.421211,-1.438403,
WILLENHALL DENTAL CENTRE WILLENHALL PRIMARY CARE CENTRE REMEMBRANCE ROAD CV3 3DG,CV3 3DG,Commercial - Medical - Dentist,,LLPG-BLPU-20200709,52.387714,-1.459978,
85-87 BAGINTON ROAD CV3 6FR,CV3 6FR,Commercial - Medical - Dentist,,LLPG-BLPU-20200709,52.384413,-1.513228,
UNIVERSITY HOSPITAL WAYSIDE HOUSE WAYSIDE BUSINESS PARK WILSONS LANE CV6 6JA,CV6 6JA,Commercial - Medical - Hospital / Hospice,,LLPG-BLPU-20200709,52.456582,-1.4869,
BMI MERIDEN HOSPITAL UNIVERSITY HOSPITAL CLIFFORD BRIDGE ROAD CV2 2LQ,CV2 2LQ,Commercial - Medical - Hospital / Hospice,,LLPG-BLPU-20200709,52.421211,-1.438403,
7 GROSVENOR HOUSE GROSVENOR ROAD CV1 3FZ,CV1 3FZ,Commercial - Medical - Dentist,,LLPG-BLPU-20200709,52.402789,-1.517671,
298A-298C  DENTAL SURGERY FOLESHILL ROAD CV6 5AH,CV6 5AH,Commercial - Medical - Dentist,,LLPG-BLPU-20200709,52.42552,-1.50143,
COVENTRY WALK IN CENTRE 2  HEALTH CARE CENTRE STONEY STANTON ROAD CV1 4FS,CV1 4FS,Commercial - Medical - General Practice Surgery / Clinic,,LLPG-BLPU-20200709,52.413401,-1.508005,
THE MERIDIAN PRACTICE 2  HEALTH CARE CENTRE STONEY STANTON ROAD CV1 4FS,CV1 4FS,Commercial - Medical - General Practice Surgery / Clinic,,LLPG-BLPU-20200709,52.413401,-1.508005,
COVENTRY AND RUGBY GP ALLIANCE UHCW  UNIVERSITY HOSPITAL CLIFFORD BRIDGE ROAD CV2 2DX,CV2 2DX,Commercial - Medical - General Practice Surgery / Clinic,,LLPG-BLPU-20200709,52.421211,-1.438403,
COVENTRY AND RUGBY OUT OF HOURS SERVICE 2  HEALTH CARE CENTRE STONEY STANTON ROAD CV1 4FS,CV1 4FS,Commercial - Medical - General Practice Surgery / Clinic,,LLPG-BLPU-20200709,52.413401,-1.508005,
TRAVEL KLINIX 77C  GOVIND HEALTH CENTRE MOOR STREET CV5 6EU,CV5 6EU,Commercial - Medical - General Practice Surgery / Clinic,,LLPG-BLPU-20200709,52.400277,-1.532784,
KERESLEY HEALTH CENTRE BENNETTS ROAD CV7 8HY,CV7 8HY,Commercial - Medical - General Practice Surgery / Clinic,,LLPG-BLPU-20200709,52.454069,-1.533549,
85  HEALTH AND FAMILY CENTRE WINDMILL ROAD CV6 7AT,CV6 7AT,Commercial - Medical - General Practice Surgery / Clinic,,LLPG-BLPU-20200709,52.444687,-1.484449,
268  THE GABLES MEDICENTRE HOLBROOK LANE CV6 4DB,CV6 4DB,Commercial - Medical - General Practice Surgery / Clinic,,LLPG-BLPU-20200709,52.440299,-1.503411,
25  SURGERY WHEELWRIGHT LANE CV6 4HF,CV6 4HF,Commercial - Medical - General Practice Surgery / Clinic,,LLPG-BLPU-20200709,52.446217,-1.510356,
47  SURGERY HEADINGTON AVENUE CV6 2GX,CV6 2GX,Commercial - Medical - General Practice Surgery / Clinic,,LLPG-BLPU-20200709,52.441492,-1.524472,
100A HILLMORTON ROAD CV2 1FW,CV2 1FW,Commercial - Medical - General Practice Surgery / Clinic,,LLPG-BLPU-20200709,52.438748,-1.463166,
201  WOODWAY MEDICAL CENTRE WIGSTON ROAD CV2 2RH,CV2 2RH,Commercial - Medical - General Practice Surgery / Clinic,,LLPG-BLPU-20200709,52.437565,-1.444418,
318 BELL GREEN ROAD CV6 7HB,CV6 7HB,Commercial - Medical - General Practice Surgery / Clinic,,LLPG-BLPU-20200709,52.435924,-1.474711,
71-73 WHEELWRIGHT LANE CV6 4HN,CV6 4HN,Commercial - Medical - General Practice Surgery / Clinic,,LLPG-BLPU-20200709,52.448874,-1.511371,
2  EDGWICK MEDICAL CENTRE QUEEN MARYS ROAD CV6 5LL,CV6 5LL,Commercial - Medical - General Practice Surgery / Clinic,,LLPG-BLPU-20200709,52.432142,-1.498333,
HENLEY GREEN MEDICAL CENTRE HENLEY ROAD CV2 1AB,CV2 1AB,Commercial - Medical - General Practice Surgery / Clinic,,LLPG-BLPU-20200709,52.428369,-1.454284,
200  PARADISE MEDICAL CENTRE BROAD STREET CV6 5BG,CV6 5BG,Commercial - Medical - General Practice Surgery / Clinic,,LLPG-BLPU-20200709,52.426778,-1.494835,
WYKEN MEDICAL CENTRE BRIXHAM DRIVE CV2 3LB,CV2 3LB,Commercial - Medical - General Practice Surgery / Clinic,,LLPG-BLPU-20200709,52.425447,-1.470004,
42 ST PAULS ROAD CV6 5DF,CV6 5DF,Commercial - Medical - General Practice Surgery / Clinic,,LLPG-BLPU-20200709,52.425013,-1.49837,
163  ALLESLY VILLAGE SURGERY BIRMINGHAM ROAD CV5 9GR,CV5 9GR,Commercial - Medical - General Practice Surgery / Clinic,,LLPG-BLPU-20200709,52.423233,-1.564466,
2  ENGLETON HOUSE SURGERY VILLA ROAD CV6 3HZ,CV6 3HZ,Commercial - Medical - General Practice Surgery / Clinic,,LLPG-BLPU-20200709,52.423674,-1.522311,
475  STONEY STANTON MEDICAL CENTRE STONEY STANTON ROAD CV6 5EA,CV6 5EA,Commercial - Medical - General Practice Surgery / Clinic,,LLPG-BLPU-20200709,52.423532,-1.494681,
1A ENGLETON ROAD CV6 1JF,CV6 1JF,Commercial - Medical - General Practice Surgery / Clinic,,LLPG-BLPU-20200709,52.422539,-1.52397,
50  WALSGRAVE HEALTH CENTRE HALL LANE CV2 2SW,CV2 2SW,Commercial - Medical - General Practice Surgery / Clinic,,LLPG-BLPU-20200709,52.422557,-1.443709,
40  TORCROSS MEDICAL CENTRE TORCROSS AVENUE CV2 3NF,CV2 3NF,Commercial - Medical - General Practice Surgery / Clinic,,LLPG-BLPU-20200709,52.419531,-1.469906,
216 FOLESHILL ROAD CV1 4JH,CV1 4JH,Commercial - Medical - General Practice Surgery / Clinic,,LLPG-BLPU-20200709,52.419528,-1.506534,
109  MOSELEY AVENUE SURGERY MOSELEY AVENUE CV6 1HS,CV6 1HS,Commercial - Medical - General Practice Surgery / Clinic,,LLPG-BLPU-20200709,52.419893,-1.525425,
1A  FORUM HEALTH CENTRE FARREN ROAD CV2 5EP,CV2 5EP,Commercial - Medical - General Practice Surgery / Clinic,,LLPG-BLPU-20200709,52.416818,-1.458323,
172 ANSTY ROAD CV2 3EX,CV2 3EX,Commercial - Medical - General Practice Surgery / Clinic,,LLPG-BLPU-20200709,52.415838,-1.462378,
18A BLETCHLEY DRIVE CV5 9LW,CV5 9LW,Commercial - Medical - General Practice Surgery / Clinic,,LLPG-BLPU-20200709,52.416123,-1.561914,
327 HOLYHEAD ROAD CV5 8JQ,CV5 8JQ,Commercial - Medical - General Practice Surgery / Clinic,,LLPG-BLPU-20200709,52.415151,-1.535797,
380 WALSGRAVE ROAD CV2 4AF,CV2 4AF,Commercial - Medical - General Practice Surgery / Clinic,,LLPG-BLPU-20200709,52.412581,-1.471856,
ALLESLEY PARK MEDICAL CENTRE WHITAKER ROAD CV5 9JE,CV5 9JE,Commercial - Medical - General Practice Surgery / Clinic,,LLPG-BLPU-20200709,52.413015,-1.555343,
SIMON HOUSE BIRD STREET CV1 5FX,CV1 5FX,Commercial - Medical - General Practice Surgery / Clinic,,LLPG-BLPU-20200709,52.412353,-1.506635,
5 COUNDON ROAD CV1 4AR,CV1 4AR,Commercial - Medical - General Practice Surgery / Clinic,,LLPG-BLPU-20200709,52.412108,-1.521142,
1 CHESTER STREET CV1 4DH,CV1 4DH,Commercial - Medical - General Practice Surgery / Clinic,,LLPG-BLPU-20200709,52.41187,-1.522424,
1A FREDERICK NEAL AVENUE CV5 7EH,CV5 7EH,Commercial - Medical - General Practice Surgery / Clinic,,LLPG-BLPU-20200709,52.41639,-1.593876,
2 ELLACOMBE ROAD CV2 1BP,CV2 1BP,Commercial - Medical - General Practice Surgery / Clinic,,LLPG-BLPU-20200709,52.43148,-1.462203,
69 MOUNT STREET CV5 8DE,CV5 8DE,Commercial - Medical - General Practice Surgery / Clinic,,LLPG-BLPU-20200709,52.406992,-1.53453,
2  PARK HOUSE ST GEORGES ROAD CV1 2DL,CV1 2DL,Commercial - Medical - General Practice Surgery / Clinic,,LLPG-BLPU-20200709,52.405815,-1.491047,
95  COPSEWOOD MEDICAL CENTRE MOMUS BOULEVARD CV2 5NB,CV2 5NB,Commercial - Medical - General Practice Surgery / Clinic,,LLPG-BLPU-20200709,52.406134,-1.465436,
TILE HILL PRIMARY CARE CENTRE JARDINE CRESCENT CV4 9PN,CV4 9PN,Commercial - Medical - General Practice Surgery / Clinic,,LLPG-BLPU-20200709,52.406833,-1.578558,
WOODSIDE MEDICAL CENTRE TILE HILL PRIMARY CARE CENTRE JARDINE CRESCENT CV4 9PL,CV4 9PL,Commercial - Medical - General Practice Surgery / Clinic,,LLPG-BLPU-20200709,52.407214,-1.579274,
4  HARMONY MEDICAL DIET CLINIC IN COVENTRY CITY ARCADE CV1 3HW,CV1 3HW,Commercial - Medical - General Practice Surgery / Clinic,,LLPG-BLPU-20200709,52.406229,-1.514767,
684 BROAD LANE CV5 7BB,CV5 7BB,Commercial - Medical - General Practice Surgery / Clinic,,LLPG-BLPU-20200709,52.412304,-1.582328,
102  ST GEORGES ROAD SURGERY ST GEORGES ROAD CV1 2DL,CV1 2DL,Commercial - Medical - General Practice Surgery / Clinic,,LLPG-BLPU-20200709,52.405815,-1.491047,
NATURAL THERAPY CENTRE ALDA HOUSE MANOR HOUSE DRIVE CV1 2EY,CV1 2EY,Commercial - Medical - General Practice Surgery / Clinic,,LLPG-BLPU-20200709,52.404591,-1.512336,
298  WESTWOOD MEDICAL HEALTH CENTRE TILE HILL LANE CV4 9DS,CV4 9DS,Commercial - Medical - General Practice Surgery / Clinic,,LLPG-BLPU-20200709,52.404283,-1.561928,
56 MANSFIELD MEDICAL CENTRE BINLEY ROAD CV3 1JB,CV3 1JB,Commercial - Medical - General Practice Surgery / Clinic,,LLPG-BLPU-20200709,52.405976,-1.484577,
41 WESTMINSTER ROAD CV1 3GB,CV1 3GB,Commercial - Medical - General Practice Surgery / Clinic,,LLPG-BLPU-20200709,52.403423,-1.518884,
35  PHOENIX FAMILY CARE PARK ROAD CV1 2LE,CV1 2LE,Commercial - Medical - General Practice Surgery / Clinic,,LLPG-BLPU-20200709,52.402656,-1.5098,
31 PARK ROAD CV1 2LE,CV1 2LE,Commercial - Medical - General Practice Surgery / Clinic,,LLPG-BLPU-20200709,52.402656,-1.5098,
27 PARK ROAD CV1 2LE,CV1 2LE,Commercial - Medical - General Practice Surgery / Clinic,,LLPG-BLPU-20200709,52.402656,-1.5098,
148  KENSINGTON ROAD SURGERY KENSINGTON ROAD CV5 6HY,CV5 6HY,Commercial - Medical - General Practice Surgery / Clinic,,LLPG-BLPU-20200709,52.40257,-1.532401,
MALLING HEALTH AT STOKE ALDERMOOR CLINIC ALDERMOOR LANE CV3 1BN,CV3 1BN,Commercial - Medical - General Practice Surgery / Clinic,,LLPG-BLPU-20200709,52.402142,-1.479565,
12 PARK ROAD CV1 2LD,CV1 2LD,Commercial - Medical - General Practice Surgery / Clinic,,LLPG-BLPU-20200709,52.402342,-1.509518,
177 ALBANY ROAD CV5 6NE,CV5 6NE,Commercial - Medical - General Practice Surgery / Clinic,,LLPG-BLPU-20200709,52.40053,-1.528205,
232 BREDON AVENUE CV3 2FD,CV3 2FD,Commercial - Medical - General Practice Surgery / Clinic,,LLPG-BLPU-20200709,52.39978,-1.446465,
77C  GOVIND HEALTH CENTRE MOOR STREET CV5 6EU,CV5 6EU,Commercial - Medical - General Practice Surgery / Clinic,,LLPG-BLPU-20200709,52.400277,-1.532784,
108 BRANDON ROAD CV3 2JF,CV3 2JF,Commercial - Medical - General Practice Surgery / Clinic,,LLPG-BLPU-20200709,52.399845,-1.443098,
42A STATION AVENUE CV4 9HS,CV4 9HS,Commercial - Medical - General Practice Surgery / Clinic,,LLPG-BLPU-20200709,52.398944,-1.595614,
STOKE ALDERMOOR MEDICAL CENTRE THE BARLEY LEA CV3 1EG,CV3 1EG,Commercial - Medical - General Practice Surgery / Clinic,,LLPG-BLPU-20200709,52.397343,-1.475786,
COVENTRY UNIVERSITY MEDICAL CENTRE 4  THE HUB JORDAN WELL CV1 5QP,CV1 5QP,Commercial - Medical - General Practice Surgery / Clinic,,LLPG-BLPU-20200709,52.407192,-1.506128,
2 UNION PLACE CV6 6BT,CV6 6BT,Commercial - Medical - General Practice Surgery / Clinic,,LLPG-BLPU-20200709,52.452733,-1.486636,
6  FORREST MEDICAL CENTRE PRIOR DERAM WALK CV4 8FT,CV4 8FT,Commercial - Medical - General Practice Surgery / Clinic,,LLPG-BLPU-20200709,52.3946,-1.559438,
74 QUINTON ROAD CV3 5FD,CV3 5FD,Commercial - Medical - General Practice Surgery / Clinic,,LLPG-BLPU-20200709,52.395682,-1.508113,
8 PRIOR DERAM WALK CV4 8FT,CV4 8FT,Commercial - Medical - General Practice Surgery / Clinic,,LLPG-BLPU-20200709,52.3946,-1.559438,
30 PARK ROAD CV1 2LD,CV1 2LD,Commercial - Medical - General Practice Surgery / Clinic,,LLPG-BLPU-20200709,52.402342,-1.509518,
5  CLAY LANE HEALTH CENTRE CLAY LANE CV2 4LJ,CV2 4LJ,Commercial - Medical - General Practice Surgery / Clinic,,LLPG-BLPU-20200709,52.412774,-1.482836,
3 MAYORS CROFT CV4 8FF,CV4 8FF,Commercial - Medical - General Practice Surgery / Clinic,,LLPG-BLPU-20200709,52.393796,-1.563119,
2 ULVERSCROFT ROAD CV3 5EZ,CV3 5EZ,Commercial - Medical - General Practice Surgery / Clinic,,LLPG-BLPU-20200709,52.391381,-1.509008,
THE CHEYLESMORE SURGERY 51 QUINTON PARK CV3 5PZ,CV3 5PZ,Commercial - Medical - General Practice Surgery / Clinic,,LLPG-BLPU-20200709,52.391324,-1.503924,
2 HEALTH CARE CENTRE STONEY STANTON ROAD CV1 4FS,CV1 4FS,Commercial - Medical - General Practice Surgery / Clinic,,LLPG-BLPU-20200709,52.413401,-1.508005,
60 THE PARK PALING CV3 5LJ,CV3 5LJ,Commercial - Medical - General Practice Surgery / Clinic,,LLPG-BLPU-20200709,52.391505,-1.495855,
103 LEAMINGTON ROAD CV3 6GQ,CV3 6GQ,Commercial - Medical - General Practice Surgery / Clinic,,LLPG-BLPU-20200709,52.390005,-1.51543,
MALLING HEALTH AT FOLESHILL STATION STREET WEST CV6 5ND,CV6 5ND,Commercial - Medical - General Practice Surgery / Clinic,,LLPG-BLPU-20200709,52.430909,-1.50223,
70  WILLENHALL OAK MEDICAL CENTRE REMEMBRANCE ROAD CV3 3DP,CV3 3DP,Commercial - Medical - General Practice Surgery / Clinic,,LLPG-BLPU-20200709,52.388988,-1.463131,
CHEYLESMORE WELFARE CLINIC POITIERS ROAD CV3 5JX,CV3 5JX,Commercial - Medical - General Practice Surgery / Clinic,,LLPG-BLPU-20200709,52.389011,-1.503603,
124  WILLENHALL CLINIC STRETTON AVENUE CV3 3AH,CV3 3AH,Commercial - Medical - General Practice Surgery / Clinic,,LLPG-BLPU-20200709,52.38791,-1.465333,
SPRINGFIELD MEDICAL PRACTICE KERESLEY GREEN MEDICAL CENTRE BENNETTS ROAD SOUTH CV6 2FL,CV6 2FL,Commercial - Medical - General Practice Surgery / Clinic,,LLPG-BLPU-20200709,52.437994,-1.531085,
67B  WOOD END HEALTH CENTRE DEEDMORE ROAD CV2 1XA,CV2 1XA,Commercial - Medical - General Practice Surgery / Clinic,,LLPG-BLPU-20200709,52.435643,-1.464197,
15  KENYON MEDICAL CENTRES CHACE AVENUE CV3 3AD,CV3 3AD,Commercial - Medical - General Practice Surgery / Clinic,,LLPG-BLPU-20200709,52.385128,-1.472557,
PARK LEYS MEDICAL PRACTICE KERESLEY GREEN MEDICAL CENTRE BENNETTS ROAD SOUTH CV6 2FL,CV6 2FL,Commercial - Medical - General Practice Surgery / Clinic,,LLPG-BLPU-20200709,52.437994,-1.531085,
1-3  BALLIOL ROAD SURGERY BALLIOL ROAD CV2 3DR,CV2 3DR,Commercial - Medical - General Practice Surgery / Clinic,,LLPG-BLPU-20200709,52.415924,-1.471449,
DOCTORS SURGERY 2 MAIDAVALE CRESCENT CV3 6FZ,CV3 6FZ,Commercial - Medical - General Practice Surgery / Clinic,,LLPG-BLPU-20200709,52.383509,-1.514311,
LONGFORD PRIMARY CARE CENTRE LONGFORD ROAD CV6 6DR,CV6 6DR,Commercial - Medical - General Practice Surgery / Clinic,,LLPG-BLPU-20200709,52.449933,-1.48555,
BROOMFIELD PARK MEDICAL CENTRE SPON END CV1 3HQ,CV1 3HQ,Commercial - Medical - General Practice Surgery / Clinic,,LLPG-BLPU-20200709,52.407844,-1.527632,
WILLENHALL PRIMARY CARE CENTRE REMEMBRANCE ROAD CV3 3DG,CV3 3DG,Commercial - Medical - General Practice Surgery / Clinic,,LLPG-BLPU-20200709,52.387714,-1.459978,
SURGERY ADJACENT TO BELL GREEN HEALTH CENTRE ROSEBERRY AVENUE CV2 1NE,CV2 1NE,Commercial - Medical - General Practice Surgery / Clinic,,LLPG-BLPU-20200709,52.436616,-1.470628,
52 DAWLISH DRIVE CV3 5NB,CV3 5NB,Commercial - Medical - General Practice Surgery / Clinic,,LLPG-BLPU-20200709,52.381915,-1.506938,
GREEN LANE MEDICAL CENTRE GREEN LANE CV3 6EA,CV3 6EA,Commercial - Medical - General Practice Surgery / Clinic,,LLPG-BLPU-20200709,52.382242,-1.527591,
BRADBURY HOUSE BREDON AVENUE CV3 2FD,CV3 2FD,Commercial - Medical - General Practice Surgery / Clinic,,LLPG-BLPU-20200709,52.39978,-1.446465,
APARTMENT 3 16  QUEENS HOUSE QUEENS ROAD CV1 3EJ,CV1 3EJ,Commercial - Hotels - Boarding and Guest Houses,,LLPG-BLPU-20200709,52.404244,-1.51772,
NOVOTEL WILSONS LANE CV6 6HL,CV6 6HL,Commercial - Hotels - Boarding and Guest Houses,,LLPG-BLPU-20200709,52.457801,-1.488078,
ROYAL COURT HOTEL TAMWORTH ROAD CV7 8JG,CV7 8JG,Commercial - Hotels - Boarding and Guest Houses,,LLPG-BLPU-20200709,52.451178,-1.548441,
BEECHWOOD HOTEL SANDPITS LANE CV6 2FR,CV6 2FR,Commercial - Hotels - Boarding and Guest Houses,,LLPG-BLPU-20200709,52.443076,-1.533826,
HILTON COVENTRY PARADISE WAY CV2 2ST,CV2 2ST,Commercial - Hotels - Boarding and Guest Houses,,LLPG-BLPU-20200709,52.437246,-1.43589,
THE PILOT HOTEL CATESBY ROAD CV6 4AU,CV6 4AU,Commercial - Hotels - Boarding and Guest Houses,,LLPG-BLPU-20200709,52.435016,-1.519099,
COUNDON LODGE COUNDON GREEN CV6 2AL,CV6 2AL,Commercial - Hotels - Boarding and Guest Houses,,LLPG-BLPU-20200709,52.431217,-1.540526,
HOLIDAY INN HINCKLEY ROAD CV2 2RU,CV2 2RU,Commercial - Hotels - Boarding and Guest Houses,,LLPG-BLPU-20200709,52.439741,-1.458122,
COVENTRY HILL HOTEL RYE HILL CV5 9PH,CV5 9PH,Commercial - Hotels - Boarding and Guest Houses,,LLPG-BLPU-20200709,52.426079,-1.573021,
ALLESLEY HOTEL BIRMINGHAM ROAD CV5 9GT,CV5 9GT,Commercial - Hotels - Boarding and Guest Houses,,LLPG-BLPU-20200709,52.423266,-1.560931,
250 RADFORD ROAD CV6 3BU,CV6 3BU,Commercial - Hotels - Boarding and Guest Houses,,LLPG-BLPU-20200709,52.422327,-1.520399,
THE JACOBEAN HOTEL HOLYHEAD ROAD CV5 8HX,CV5 8HX,Commercial - Hotels - Boarding and Guest Houses,,LLPG-BLPU-20200709,52.41961,-1.552116,
35  MOTOR HOTEL DORSET ROAD CV1 4ED,CV1 4ED,Commercial - Hotels - Boarding and Guest Houses,,LLPG-BLPU-20200709,52.419687,-1.512384,
154 WYKEN AVENUE CV2 3BZ,CV2 3BZ,Commercial - Hotels - Boarding and Guest Houses,,LLPG-BLPU-20200709,52.418662,-1.458565,
ACORN LODGE GUEST HOUSE POND FARM UPPER EASTERN GREEN LANE CV5 7DP,CV5 7DP,Commercial - Hotels - Boarding and Guest Houses,,LLPG-BLPU-20200709,52.417193,-1.584978,
82 ST NICHOLAS STREET CV1 4BP,CV1 4BP,Commercial - Hotels - Boarding and Guest Houses,,LLPG-BLPU-20200709,52.414493,-1.512986,
COUNDON HOTEL BARKER BUTTS LANE CV6 1DT,CV6 1DT,Commercial - Hotels - Boarding and Guest Houses,,LLPG-BLPU-20200709,52.415826,-1.524527,
382  WALSGRAVE HOTEL WALSGRAVE ROAD CV2 4AF,CV2 4AF,Commercial - Hotels - Boarding and Guest Houses,,LLPG-BLPU-20200709,52.412581,-1.471856,
FLAT B 27 ST COLUMBAS CLOSE CV1 4BX,CV1 4BX,Commercial - Hotels - Boarding and Guest Houses,,LLPG-BLPU-20200709,52.413564,-1.514349,
2A NORTHUMBERLAND ROAD CV1 3AQ,CV1 3AQ,Commercial - Hotels - Boarding and Guest Houses,,LLPG-BLPU-20200709,52.410281,-1.525219,
121 HOLYHEAD ROAD CV1 3AD,CV1 3AD,Commercial - Hotels - Boarding and Guest Houses,,LLPG-BLPU-20200709,52.410802,-1.523088,
80-90 DAYS HOTEL HOLYHEAD ROAD CV1 3AS,CV1 3AS,Commercial - Hotels - Boarding and Guest Houses,,LLPG-BLPU-20200709,52.410708,-1.521657,
105 HOLYHEAD ROAD CV1 3AD,CV1 3AD,Commercial - Hotels - Boarding and Guest Houses,,LLPG-BLPU-20200709,52.410802,-1.523088,
62  OLD BALL HOTEL WALSGRAVE ROAD CV2 4EB,CV2 4EB,Commercial - Hotels - Boarding and Guest Houses,,LLPG-BLPU-20200709,52.410008,-1.485588,
CHURCHILL HOTEL WALSGRAVE ROAD CV2 4EB,CV2 4EB,Commercial - Hotels - Boarding and Guest Houses,,LLPG-BLPU-20200709,52.410008,-1.485588,
28 LOWER HOLYHEAD ROAD CV1 3AU,CV1 3AU,Commercial - Hotels - Boarding and Guest Houses,,LLPG-BLPU-20200709,52.409496,-1.517745,
BRITANNIA COVENTRY HOTEL FAIRFAX STREET CV1 5RP,CV1 5RP,Commercial - Hotels - Boarding and Guest Houses,,LLPG-BLPU-20200709,52.409489,-1.50719,
9 COUNDON ROAD CV1 4AR,CV1 4AR,Commercial - Hotels - Boarding and Guest Houses,,LLPG-BLPU-20200709,52.412108,-1.521142,
23 QUEENSLAND AVENUE CV5 8FE,CV5 8FE,Commercial - Hotels - Boarding and Guest Houses,,LLPG-BLPU-20200709,52.405992,-1.536275,
23 STOKE GREEN CV3 1FP,CV3 1FP,Commercial - Hotels - Boarding and Guest Houses,,LLPG-BLPU-20200709,52.403996,-1.479955,
12 REGENT STREET CV1 3EP,CV1 3EP,Commercial - Hotels - Boarding and Guest Houses,,LLPG-BLPU-20200709,52.403591,-1.520205,
14 REGENT STREET CV1 3EP,CV1 3EP,Commercial - Hotels - Boarding and Guest Houses,,LLPG-BLPU-20200709,52.403591,-1.520205,
123 BERESFORD AVENUE CV6 5JA,CV6 5JA,Commercial - Hotels - Boarding and Guest Houses,,LLPG-BLPU-20200709,52.436633,-1.499503,
HUMBER HOTEL HUMBER ROAD CV3 1BA,CV3 1BA,Commercial - Hotels - Boarding and Guest Houses,,LLPG-BLPU-20200709,52.402534,-1.487013,
35 WESTMINSTER ROAD CV1 3GB,CV1 3GB,Commercial - Hotels - Boarding and Guest Houses,,LLPG-BLPU-20200709,52.403423,-1.518884,
THE IBIS MILE LANE CV1 2LN,CV1 2LN,Commercial - Hotels - Boarding and Guest Houses,,LLPG-BLPU-20200709,52.403104,-1.507281,
65 BARRAS LANE CV1 4AQ,CV1 4AQ,Commercial - Hotels - Boarding and Guest Houses,,LLPG-BLPU-20200709,52.411072,-1.520624,
36 PARK ROAD CV1 2LD,CV1 2LD,Commercial - Hotels - Boarding and Guest Houses,,LLPG-BLPU-20200709,52.402342,-1.509518,
19 PARK ROAD CV1 2LE,CV1 2LE,Commercial - Hotels - Boarding and Guest Houses,,LLPG-BLPU-20200709,52.402656,-1.5098,
17 PARK ROAD CV1 2LE,CV1 2LE,Commercial - Hotels - Boarding and Guest Houses,,LLPG-BLPU-20200709,52.402656,-1.5098,
11 PARK ROAD CV1 2LE,CV1 2LE,Commercial - Hotels - Boarding and Guest Houses,,LLPG-BLPU-20200709,52.402656,-1.5098,
303 ANSTY ROAD CV2 3FN,CV2 3FN,Commercial - Hotels - Boarding and Guest Houses,,LLPG-BLPU-20200709,52.420187,-1.453959,
16 GRESWOLD CLOSE CV4 9JJ,CV4 9JJ,Commercial - Hotels - Boarding and Guest Houses,,LLPG-BLPU-20200709,52.40029,-1.579032,
153  HYLANDS HOTEL WARWICK ROAD CV3 6AU,CV3 6AU,Commercial - Hotels - Boarding and Guest Houses,,LLPG-BLPU-20200709,52.397757,-1.516168,
76 NAILCOTE AVENUE CV4 9GL,CV4 9GL,Commercial - Hotels - Boarding and Guest Houses,,LLPG-BLPU-20200709,52.39868,-1.599476,
PREMIER INN 53-55 BUTTS CV1 3BH,CV1 3BH,Commercial - Hotels - Boarding and Guest Houses,,LLPG-BLPU-20200709,52.405882,-1.524487,
4 WIGSTON ROAD CV2 2SD,CV2 2SD,Commercial - Hotels - Boarding and Guest Houses,,LLPG-BLPU-20200709,52.431176,-1.439321,
FORMULE 1 HOTEL MILE LANE CV1 2NE,CV1 2NE,Commercial - Hotels - Boarding and Guest Houses,,LLPG-BLPU-20200709,52.404032,-1.505448,
WINDMILL VILLAGE HOTEL BIRMINGHAM ROAD CV5 9AL,CV5 9AL,Commercial - Hotels - Boarding and Guest Houses,,LLPG-BLPU-20200709,52.428185,-1.581178,
IBIS HOTEL ABBEY ROAD CV3 4BJ,CV3 4BJ,Commercial - Hotels - Boarding and Guest Houses,,LLPG-BLPU-20200709,52.387729,-1.485245,
PREMIER INN GIELGUD WAY CV2 2SZ,CV2 2SZ,Commercial - Hotels - Boarding and Guest Houses,,LLPG-BLPU-20200709,52.434706,-1.429171,
